# 
# Header Description:
# 
# Version: v2.0.0.1 Platform: 12 Manufacturer: Google Model: Pixel 6
# 
# Raw,ElapsedRealtimeMillis,TimeNanos,LeapSecond,TimeUncertaintyNanos,FullBiasNanos,BiasNanos,BiasUncertaintyNanos,DriftNanosPerSecond,DriftUncertaintyNanosPerSecond,HardwareClockDiscontinuityCount,Svid,TimeOffsetNanos,State,ReceivedSvTimeNanos,ReceivedSvTimeUncertaintyNanos,Cn0DbHz,PseudorangeRateMetersPerSecond,PseudorangeRateUncertaintyMetersPerSecond,AccumulatedDeltaRangeState,AccumulatedDeltaRangeMeters,AccumulatedDeltaRangeUncertaintyMeters,CarrierFrequencyHz,CarrierCycles,CarrierPhase,CarrierPhaseUncertainty,MultipathIndicator,SnrInDb,ConstellationType,AgcDb,CarrierFrequencyHz
# 
# 
# Nav,Svid,Type,Status,MessageId,Sub-messageId,Data(Bytes)
# 
Raw,2289780,7530000000,,,-1348408897469509500,0.0,9.60237965280647,,,24,4,0.0,16431,309704929185251,9,50.162139892578125,84.67745424144414,0.15,29,593.1744368126133,4.82100440422073E-4,1.57542003E9,,,,0,,1,18.320785522460938,1.57542003E9
Raw,2289781,7530000000,,,-1348408897469509500,0.0,9.60237965280647,,,24,8,0.0,16431,309704924632504,11,45.334938049316406,-747.2804218488359,0.15,29,-5436.013405850942,7.972944877110422E-4,1.57542003E9,,,,0,,1,18.320785522460938,1.57542003E9
Raw,2289781,7530000000,,,-1348408897469509500,0.0,9.60237965280647,,,24,9,0.0,16431,309704925312540,12,47.02010726928711,-339.1000270105062,0.15,29,-2473.096998326943,6.922120810486376E-4,1.57542003E9,,,,0,,1,18.320785522460938,1.57542003E9
Raw,2289781,7530000000,,,-1348408897469509500,0.0,9.60237965280647,,,24,16,0.0,16431,309704931465888,7,52.29849624633789,109.81968194945722,0.15,29,784.7419617634771,3.769811009988189E-4,1.57542003E9,,,,0,,1,18.320785522460938,1.57542003E9
Raw,2289781,7530000000,,,-1348408897469509500,0.0,9.60237965280647,,,24,26,0.0,16431,309704927789237,9,49.606746673583984,319.7284789492669,0.15,29,2334.4327031270727,5.139336572028697E-4,1.57542003E9,,,,0,,1,18.320785522460938,1.57542003E9
Raw,2289781,7530000000,,,-1348408897469509500,0.0,9.60237965280647,,,24,27,0.0,16431,309704931634903,7,53.39462661743164,-418.0036404573341,0.15,29,-3052.8191041288474,3.322868433315307E-4,1.57542003E9,,,,0,,1,18.320785522460938,1.57542003E9
Raw,2289781,7530000000,,,-1348408897469509500,0.0,9.60237965280647,,,24,4,0.0,81921,309704929185801,8,45.964874267578125,84.66739991676991,0.15,29,877.3960587174396,0.0010347214993089437,1.17645005E9,,,,0,,1,13.544873237609863,1.17645005E9
Raw,2289781,7530000000,,,-1348408897469509500,0.0,9.60237965280647,,,24,8,0.0,81921,309704924633063,8,40.99674987792969,-747.3518586777077,0.15,29,-7792.263657173684,0.001739205908961594,1.17645005E9,,,,0,,1,13.544873237609863,1.17645005E9
Raw,2289781,7530000000,,,-1348408897469509500,0.0,9.60237965280647,,,24,9,0.0,81921,309704925313090,6,43.435611724853516,-339.06584230661383,0.15,29,-3539.3836052078614,0.001313433051109314,1.17645005E9,,,,1,,1,13.544873237609863,1.17645005E9
Raw,2289781,7530000000,,,-1348408897469509500,0.0,9.60237965280647,,,24,26,0.0,81921,309704927789795,8,45.55438995361328,319.72783138259297,0.15,29,3335.47145054108,0.0010847952216863632,1.17645005E9,,,,0,,1,13.544873237609863,1.17645005E9
Raw,2289781,7530000000,,,-1348408897469509500,0.0,9.60237965280647,,,24,27,0.0,81921,309704931635462,8,48.2083740234375,-418.0024816538123,0.15,29,-4361.000268679316,7.991871098056436E-4,1.17645005E9,,,,0,,1,13.544873237609863,1.17645005E9
Raw,2289782,7530000000,,,-1348408897469509500,0.0,9.60237965280647,,,24,2,0.0,32867,61286925358898,33,51.03757095336914,621.1988496094382,0.15,21,4858.40594399295,0.09412903366689027,1.59975002E9,,,,0,,3,39.110958099365234,1.59975002E9
Raw,2289782,7530000000,,,-1348408897469509500,0.0,9.60237965280647,,,24,13,0.0,32769,61286930771725,595,42.581729888916016,-403.4026820005056,0.15,16,-147.46943161591707,3.4028234663852886E38,1.60087501E9,,,,1,,3,39.110958099365234,1.60087501E9
Raw,2289782,7530000000,,,-1348408897469509500,0.0,9.60237965280647,,,24,12,0.0,32867,61286932113639,33,54.6711311340332,83.1531589765321,0.15,21,591.8948569378805,0.0938832596913574,1.60143744E9,,,,0,,3,39.110958099365234,1.60143744E9
Raw,2289782,7530000000,,,-1348408897469509500,0.0,9.60237965280647,,,24,3,0.0,32867,61286928526985,33,52.81505584716797,53.719383371457496,0.15,21,374.57619861607475,0.0937529102968484,1.60481254E9,,,,0,,3,39.110958099365234,1.60481254E9
Raw,2289782,7530000000,,,-1348408897469509500,0.0,9.60237965280647,,,24,194,0.0,16431,309704868281439,8,51.3572883605957,-88.22162073033815,0.15,29,-641.0315815803353,4.201265110168606E-4,1.57542003E9,,,,0,,4,18.320785522460938,1.57542003E9
Raw,2289782,7530000000,,,-1348408897469509500,0.0,9.60237965280647,,,24,195,0.0,16431,309704872672852,13,45.96101760864258,-116.70325604907032,0.15,29,-839.5964046620956,7.819763850420713E-4,1.57542003E9,,,,0,,4,18.320785522460938,1.57542003E9
Raw,2289782,7530000000,,,-1348408897469509500,0.0,9.60237965280647,,,24,199,0.0,16431,309704874122924,15,41.579673767089844,-91.88011681963792,0.15,29,-665.6415507976111,0.0012285195989534259,1.57542003E9,,,,0,,4,18.320785522460938,1.57542003E9
Raw,2289782,7530000000,,,-1348408897469509500,0.0,9.60237965280647,,,24,194,0.0,81921,309704868281997,6,46.48475646972656,-88.23606317128969,0.15,29,-917.1620986366117,9.746068390086293E-4,1.17645005E9,,,,0,,4,13.544873237609863,1.17645005E9
Raw,2289782,7530000000,,,-1348408897469509500,0.0,9.60237965280647,,,24,195,0.0,81921,309704872673409,8,41.35823059082031,-116.8831688164401,0.15,29,-1216.2306284225722,0.0016683109570294619,1.17645005E9,,,,0,,4,13.544873237609863,1.17645005E9
Raw,2289782,7530000000,,,-1348408897469509500,0.0,9.60237965280647,,,24,199,0.0,81921,309704874123479,7,43.10663604736328,-91.87719424899109,0.15,29,-954.466659649921,0.0013641328550875187,1.17645005E9,,,,0,,4,13.544873237609863,1.17645005E9
Raw,2289782,7530000000,,,-1348408897469509500,0.0,9.60237965280647,,,24,7,0.0,81955,309690878086133,6,50.475433349609375,-156.2640584684442,0.15,21,-1071.6557838855688,0.09648903054689024,1.56109798E9,,,,0,,5,41.223411560058594,1.56109798E9
Raw,2289782,7530000000,,,-1348408897469509500,0.0,9.60237965280647,,,24,16,0.0,81955,309690878745194,6,51.997920989990234,30.44089728424892,0.15,21,68.07420711881694,0.09641357848808137,1.56109798E9,,,,0,,5,41.223411560058594,1.56109798E9
Raw,2289782,7530000000,,,-1348408897469509500,0.0,9.60237965280647,,,24,26,0.0,81955,309690920851155,6,48.98893737792969,-489.6070984590847,0.15,21,784151.1864130978,0.09657662591702272,1.56109798E9,,,,0,,5,41.223411560058594,1.56109798E9
Raw,2289782,7530000000,,,-1348408897469509500,0.0,9.60237965280647,,,24,29,0.0,81955,309690923991940,6,52.55755615234375,-277.3781637933271,0.15,21,785136.5804069116,0.09638900376661648,1.56109798E9,,,,0,,5,41.223411560058594,1.56109798E9
Raw,2289783,7530000000,,,-1348408897469509500,0.0,9.60237965280647,,,24,35,0.0,81955,309690925426411,42,31.444168090820312,-694.763787066533,299.79702429227086,16,-4244.76317910671,3.4028234663852886E38,1.56109798E9,,,,0,,5,41.223411560058594,1.56109798E9
Raw,2289783,7530000000,,,-1348408897469509500,0.0,9.60237965280647,,,24,36,0.0,16384,309690916918302,1000000000,34.290809631347656,329.74555149851653,2.99792458E8,16,14.685182561644533,3.4028234663852886E38,1.56109798E9,,,,0,,5,41.223411560058594,1.56109798E9
Raw,2289783,7530000000,,,-1348408897469509500,0.0,9.60237965280647,,,24,39,0.0,81955,309690877172053,6,52.07892990112305,89.7886298338874,0.15,21,262560.25832396356,0.09640992243579556,1.56109798E9,,,,0,,5,41.223411560058594,1.56109798E9
Raw,2289783,7530000000,,,-1348408897469509500,0.0,9.60237965280647,,,24,40,0.0,81955,309690879349998,6,53.37053298950195,-125.28014031549208,0.15,21,785846.9830954907,0.09635600997638856,1.56109798E9,,,,0,,5,41.223411560058594,1.56109798E9
Raw,2289783,7530000000,,,-1348408897469509500,0.0,9.60237965280647,,,24,45,0.0,81955,309690926721624,6,53.941043853759766,-44.08677371270636,0.15,21,786225.9854421174,0.09633463283456829,1.56109798E9,,,,0,,5,41.223411560058594,1.56109798E9
Raw,2289783,7530000000,,,-1348408897469509500,0.0,9.60237965280647,,,24,26,0.0,81959,309690920851229,10,40.31964111328125,-489.57301600256187,0.15,29,-4609.637613081457,0.001880210475064814,1.17645005E9,,,,0,,5,13.544873237609863,1.17645005E9
Raw,2289783,7530000000,,,-1348408897469509500,0.0,9.60237965280647,,,24,29,0.0,81959,309690923992018,27,43.32359313964844,-277.2892767467156,0.15,29,-2616.628103881285,0.0013304814929142594,1.17645005E9,,,,1,,5,13.544873237609863,1.17645005E9
Raw,2289783,7530000000,,,-1348408897469509500,0.0,9.60237965280647,,,24,35,0.0,16384,309690918426412,1000000000,11.100000381469727,-696.1124298711406,2.99792458E8,16,-7338.9479387920455,3.4028234663852886E38,1.17645005E9,,,,0,,5,13.544873237609863,1.17645005E9
Raw,2289783,7530000000,,,-1348408897469509500,0.0,9.60237965280647,,,24,39,0.0,81959,309690877172136,15,43.69453048706055,89.77810687543598,0.15,16,848.1316850143978,3.4028234663852886E38,1.17645005E9,,,,0,,5,13.544873237609863,1.17645005E9
Raw,2289783,7530000000,,,-1348408897469509500,0.0,9.60237965280647,,,24,40,0.0,81959,309690879350072,7,46.28044128417969,-125.03383492281586,0.15,29,-1050.111112025443,9.978038724511862E-4,1.17645005E9,,,,0,,5,13.544873237609863,1.17645005E9
Raw,2289783,7530000000,,,-1348408897469509500,0.0,9.60237965280647,,,24,45,0.0,81959,309690926721727,55,46.33649444580078,-43.94831373308244,0.15,29,-368.24754916590075,9.913855465129018E-4,1.17645005E9,,,,0,,5,13.544873237609863,1.17645005E9
Raw,2289783,7530000000,,,-1348408897469509500,0.0,9.60237965280647,,,24,2,0.0,85026,309704920914545,8,51.440486907958984,39.780532016576444,0.15,29,285.6128453746525,4.1612156201153994E-4,1.57542003E9,,,,0,,6,18.320785522460938,1.57542003E9
Raw,2289783,7530000000,,,-1348408897469509500,0.0,9.60237965280647,,,24,7,0.0,85026,309704913588599,13,43.48456954956055,-269.99474490696457,0.15,29,-1857.5370349893433,9.86591330729425E-4,1.57542003E9,,,,0,,6,18.320785522460938,1.57542003E9
Raw,2289784,7530000000,,,-1348408897469509500,0.0,9.60237965280647,,,24,8,0.0,85026,309704916876141,10,48.699161529541016,251.27562026971316,0.15,29,1882.0248513593478,5.705406074412167E-4,1.57542003E9,,,,0,,6,18.320785522460938,1.57542003E9
Raw,2289784,7530000000,,,-1348408897469509500,0.0,9.60237965280647,,,24,30,0.0,85026,309704916088626,11,47.93931198120117,-348.11214424672426,0.15,29,-2607.7381378570353,6.227001431398094E-4,1.57542003E9,,,,0,,6,18.320785522460938,1.57542003E9
Raw,2289784,7530000000,,,-1348408897469509500,0.0,9.60237965280647,,,24,36,0.0,85026,309704911259953,16,40.45664978027344,-494.18277049464155,0.15,29,-2829.2164443768356,0.0013980839867144823,1.57542003E9,,,,0,,6,18.320785522460938,1.57542003E9
Raw,2289784,7530000000,,,-1348408897469509500,0.0,9.60237965280647,,,24,2,0.0,84003,309704920915104,7,46.247737884521484,39.85739647664951,0.15,29,376.00955732822626,0.001001567579805851,1.17645005E9,,,,0,,6,13.544873237609863,1.17645005E9
Raw,2289784,7530000000,,,-1348408897469509500,0.0,9.60237965280647,,,24,7,0.0,84003,309704913589147,7,39.952186584472656,-269.98136754277937,0.15,29,-2280.4396002849735,0.0019614584743976593,1.17645005E9,,,,0,,6,13.544873237609863,1.17645005E9
Raw,2289784,7530000000,,,-1348408897469509500,0.0,9.60237965280647,,,24,8,0.0,84003,309704916876702,7,43.646766662597656,251.3445690792588,0.15,29,3118.628811980756,0.001281888340599835,1.17645005E9,,,,0,,6,13.544873237609863,1.17645005E9
Raw,2289784,7530000000,,,-1348408897469509500,0.0,9.60237965280647,,,24,30,0.0,84003,309704916089179,7,42.88751983642578,-348.10750903263715,0.15,29,-4320.332681325196,0.0013989831786602736,1.17645005E9,,,,0,,6,13.544873237609863,1.17645005E9
Raw,2289784,7530000000,,,-1348408897469509500,0.0,9.60237965280647,,,24,36,0.0,84003,309704911260495,10,35.633968353271484,-494.19469935442453,0.5326294472324342,29,-3671.147010880211,0.0030402811244130135,1.17645005E9,,,,0,,6,13.544873237609863,1.17645005E9
Raw,2290895,8530000000,,,-1348408897469509807,0.0,8.516903651219655,,,24,4,0.0,16431,309705929184966,9,50.29219436645508,84.91593771034837,0.15,25,678.0636370070141,4.74935513921082E-4,1.57542003E9,,,,0,,1,20.007204055786133,1.57542003E9
Raw,2290895,8530000000,,,-1348408897469509807,0.0,8.516903651219655,,,24,8,0.0,16431,309705924634997,11,45.460330963134766,-747.2214591990514,0.15,25,-6183.210649079012,7.858673925511539E-4,1.57542003E9,,,,0,,1,20.007204055786133,1.57542003E9
Raw,2290895,8530000000,,,-1348408897469509807,0.0,8.516903651219655,,,24,9,0.0,16431,309705925313668,11,47.1964225769043,-338.84965728488964,0.15,25,-2811.988907350315,6.783024873584509E-4,1.57542003E9,,,,0,,1,20.007204055786133,1.57542003E9
Raw,2290895,8530000000,,,-1348408897469509807,0.0,8.516903651219655,,,24,16,0.0,16431,309705931465522,7,52.38865280151367,109.95986309313554,0.15,25,894.7102352283067,3.7308846367523074E-4,1.57542003E9,,,,0,,1,20.007204055786133,1.57542003E9
Raw,2290895,8530000000,,,-1348408897469509807,0.0,8.516903651219655,,,24,26,0.0,16431,309705927788168,9,49.73008346557617,319.8432004979227,0.15,25,2654.2833854912815,5.066877929493785E-4,1.57542003E9,,,,0,,1,20.007204055786133,1.57542003E9
Raw,2290895,8530000000,,,-1348408897469509807,0.0,8.516903651219655,,,24,27,0.0,16431,309705931636296,7,53.41993713378906,-417.77170934069636,0.15,25,-3470.6142097223224,3.3131998497992754E-4,1.57542003E9,,,,0,,1,20.007204055786133,1.57542003E9
Raw,2290896,8530000000,,,-1348408897469509807,0.0,8.516903651219655,,,24,4,0.0,81921,309705929185520,7,45.801246643066406,84.99592071519328,0.15,25,962.2953599919932,0.0010543985990807414,1.17645005E9,,,,0,,1,11.464778900146484,1.17645005E9
Raw,2290896,8530000000,,,-1348408897469509807,0.0,8.516903651219655,,,24,8,0.0,81921,309705924635559,7,41.15801239013672,-747.162496549267,0.15,25,-8539.448876483346,0.0017072134651243687,1.17645005E9,,,,0,,1,11.464778900146484,1.17645005E9
Raw,2290896,8530000000,,,-1348408897469509807,0.0,8.516903651219655,,,24,9,0.0,81921,309705925314221,7,43.37481689453125,-338.79093321230084,0.15,25,-3878.2686771069193,0.0013226582668721676,1.17645005E9,,,,0,,1,11.464778900146484,1.17645005E9
Raw,2290896,8530000000,,,-1348408897469509807,0.0,8.516903651219655,,,24,26,0.0,81921,309705927788730,7,45.54801940917969,319.9032537863159,0.15,25,3655.331570971392,0.0010855910368263721,1.17645005E9,,,,0,,1,11.464778900146484,1.17645005E9
Raw,2290896,8530000000,,,-1348408897469509807,0.0,8.516903651219655,,,24,27,0.0,81921,309705931636857,7,48.21930694580078,-417.73899018243446,0.15,25,-4778.786609951972,7.981817470863461E-4,1.17645005E9,,,,0,,1,11.464778900146484,1.17645005E9
Raw,2290896,8530000000,,,-1348408897469509807,0.0,8.516903651219655,,,24,13,0.0,32768,61287930773633,1000000000,45.140872955322266,-403.73778071303786,2.99792458E8,16,-66.76558973682185,3.4028234663852886E38,1.60087501E9,,,,0,,3,42.24633026123047,1.60087501E9
Raw,2290896,8530000000,,,-1348408897469509807,0.0,8.516903651219655,,,24,12,0.0,32867,61287932113415,33,55.447933197021484,83.44294506311729,0.15,17,675.3045229510775,0.09385911652149052,1.60143744E9,,,,0,,3,42.24633026123047,1.60143744E9
Raw,2290897,8530000000,,,-1348408897469509807,0.0,8.516903651219655,,,24,194,0.0,16431,309705868281735,8,51.55710220336914,-88.20316508013104,0.15,25,-729.1944752958187,4.105720727238804E-4,1.57542003E9,,,,0,,4,20.007204055786133,1.57542003E9
Raw,2290897,8530000000,,,-1348408897469509807,0.0,8.516903651219655,,,24,195,0.0,16431,309705872673248,12,46.109466552734375,-116.64762495941096,0.15,25,-956.2297983828147,7.687252946197987E-4,1.57542003E9,,,,0,,4,20.007204055786133,1.57542003E9
Raw,2290897,8530000000,,,-1348408897469509807,0.0,8.516903651219655,,,24,199,0.0,16431,309705874123222,14,41.75486755371094,-91.76663076003109,0.15,25,-757.3530669281105,0.0012039884459227324,1.57542003E9,,,,0,,4,20.007204055786133,1.57542003E9
Raw,2290897,8530000000,,,-1348408897469509807,0.0,8.516903651219655,,,24,194,0.0,81921,309705868282294,8,46.395050048828125,-88.14364859042809,0.15,25,-1005.3087751107133,9.8472461104393E-4,1.17645005E9,,,,1,,4,11.464778900146484,1.17645005E9
Raw,2290897,8530000000,,,-1348408897469509807,0.0,8.516903651219655,,,24,195,0.0,81921,309705872673798,7,40.89696502685547,-116.60180109661604,0.15,25,-1332.8476195460194,0.0017593016382306814,1.17645005E9,,,,0,,4,11.464778900146484,1.17645005E9
Raw,2290897,8530000000,,,-1348408897469509807,0.0,8.516903651219655,,,24,199,0.0,81921,309705874123787,9,43.12028503417969,-91.67174520107159,0.15,25,-1046.1640447824527,0.0013619911624118686,1.17645005E9,,,,0,,4,11.464778900146484,1.17645005E9
Raw,2290898,8530000000,,,-1348408897469509807,0.0,8.516903651219655,,,24,7,0.0,81955,309691878086653,6,50.739601135253906,-156.18653792108307,0.15,17,-1227.8320255290819,0.09647497275649537,1.56109798E9,,,,0,,5,42.065826416015625,1.56109798E9
Raw,2290898,8530000000,,,-1348408897469509807,0.0,8.516903651219655,,,24,16,0.0,81955,309691878745092,6,52.19061279296875,30.511398975719885,0.15,17,98.59628717454768,0.09640493758992259,1.56109798E9,,,,0,,5,42.065826416015625,1.56109798E9
Raw,2290898,8530000000,,,-1348408897469509807,0.0,8.516903651219655,,,24,26,0.0,81955,309691920852793,6,49.177799224853516,-489.57120963236616,0.15,17,783661.6328144484,0.09656464806097527,1.56109798E9,,,,0,,5,42.065826416015625,1.56109798E9
Raw,2290898,8530000000,,,-1348408897469509807,0.0,8.516903651219655,,,24,29,0.0,81955,309691923992866,6,52.59693908691406,-277.19498763074523,0.15,17,784859.3528285163,0.09638733309033294,1.56109798E9,,,,0,,5,42.065826416015625,1.56109798E9
Raw,2290898,8530000000,,,-1348408897469509807,0.0,8.516903651219655,,,24,35,0.0,81955,309691925428759,15,32.65852737426758,-695.6309810902994,0.673477195831885,17,-4940.434416823208,0.09928433797826026,1.56109798E9,,,,0,,5,42.065826416015625,1.56109798E9
Raw,2290898,8530000000,,,-1348408897469509807,0.0,8.516903651219655,,,24,36,0.0,81954,309691924917201,1000000000,27.44424819946289,326.42343221386864,2.99792458E8,16,278.4386947427706,3.4028234663852886E38,1.56109798E9,,,,0,,5,42.065826416015625,1.56109798E9
Raw,2290899,8530000000,,,-1348408897469509807,0.0,8.516903651219655,,,24,39,0.0,81955,309691877171755,6,52.21122360229492,89.87187623394436,0.15,17,262650.1479458039,0.09640402469007266,1.56109798E9,,,,0,,5,42.065826416015625,1.56109798E9
Raw,2290899,8530000000,,,-1348408897469509807,0.0,8.516903651219655,,,24,40,0.0,81955,309691879350416,6,53.334712982177734,-125.24186571681696,0.15,17,785721.76373338,0.09635739956787755,1.56109798E9,,,,0,,5,42.065826416015625,1.56109798E9
Raw,2290899,8530000000,,,-1348408897469509807,0.0,8.516903651219655,,,24,45,0.0,81955,309691926721775,6,54.04319381713867,-43.926500960907845,0.15,17,786182.0458670391,0.09633095134553467,1.56109798E9,,,,0,,5,42.065826416015625,1.56109798E9
Raw,2290899,8530000000,,,-1348408897469509807,0.0,8.516903651219655,,,24,26,0.0,81959,309691920852860,7,40.465476989746094,-489.5167458668427,0.15,25,-5099.177025036013,0.001848905230872333,1.17645005E9,,,,0,,5,11.464778900146484,1.17645005E9
Raw,2290899,8530000000,,,-1348408897469509807,0.0,8.516903651219655,,,24,29,0.0,81959,309691923992940,8,43.97252655029297,-277.1659152953313,0.15,25,-2893.8386356013184,0.0012347021838650107,1.17645005E9,,,,0,,5,11.464778900146484,1.17645005E9
Raw,2290899,8530000000,,,-1348408897469509807,0.0,8.516903651219655,,,24,35,0.0,16384,309691918428849,1000000000,27.761945724487305,-705.2334405559491,2.99792458E8,16,-8044.388816933453,3.4028234663852886E38,1.17645005E9,,,,0,,5,11.464778900146484,1.17645005E9
Raw,2290899,8530000000,,,-1348408897469509807,0.0,8.516903651219655,,,24,36,0.0,16384,309691916968614,1000000000,16.801437377929688,331.5894123964006,2.99792458E8,16,4120.522644315656,3.4028234663852886E38,1.17645005E9,,,,0,,5,11.464778900146484,1.17645005E9
Raw,2290899,8530000000,,,-1348408897469509807,0.0,8.516903651219655,,,24,39,0.0,81959,309691877171833,6,44.04386901855469,89.92001770378283,0.15,25,938.0395384949105,0.0012246021069586277,1.17645005E9,,,,0,,5,11.464778900146484,1.17645005E9
Raw,2290900,8530000000,,,-1348408897469509807,0.0,8.516903651219655,,,24,40,0.0,81959,309691879350489,6,46.4000358581543,-125.20658185370172,0.15,25,-1175.3239885137828,9.841592982411385E-4,1.17645005E9,,,,0,,5,11.464778900146484,1.17645005E9
Raw,2290900,8530000000,,,-1348408897469509807,0.0,8.516903651219655,,,24,45,0.0,81959,309691926721864,8,47.51085662841797,-43.899154049855355,0.15,25,-412.1672080333435,8.66012996993959E-4,1.17645005E9,,,,1,,5,11.464778900146484,1.17645005E9
Raw,2290900,8530000000,,,-1348408897469509807,0.0,8.516903651219655,,,24,2,0.0,85026,309705920914411,8,51.60626220703125,39.93769900452432,0.15,25,325.57579907214995,4.0825482574291527E-4,1.57542003E9,,,,0,,6,20.007204055786133,1.57542003E9
Raw,2290900,8530000000,,,-1348408897469509807,0.0,8.516903651219655,,,24,7,0.0,85026,309705913589500,12,43.672428131103516,-269.78440502653405,0.15,25,-2127.315658171448,9.65482322499156E-4,1.57542003E9,,,,0,,6,20.007204055786133,1.57542003E9
Raw,2290900,8530000000,,,-1348408897469509807,0.0,8.516903651219655,,,24,8,0.0,85026,309705916875305,10,48.79544448852539,251.46779420081702,0.15,25,2133.489698917016,5.642510368488729E-4,1.57542003E9,,,,0,,6,20.007204055786133,1.57542003E9
Raw,2290900,8530000000,,,-1348408897469509807,0.0,8.516903651219655,,,24,30,0.0,85026,309705916089789,11,48.082576751708984,-347.9539675660019,0.15,25,-2955.6735374971254,6.125136278569698E-4,1.57542003E9,,,,0,,6,20.007204055786133,1.57542003E9
Raw,2290900,8530000000,,,-1348408897469509807,0.0,8.516903651219655,,,24,36,0.0,85026,309705911261593,16,40.71440505981445,-494.0710822846163,0.15,25,-3323.2494807253147,0.0013572050957009196,1.57542003E9,,,,0,,6,20.007204055786133,1.57542003E9
Raw,2290900,8530000000,,,-1348408897469509807,0.0,8.516903651219655,,,24,2,0.0,84003,309705920914970,6,46.17045211791992,39.9984424626621,0.15,25,415.9863667350393,0.0010105192195624113,1.17645005E9,,,,0,,6,11.464778900146484,1.17645005E9
Raw,2290901,8530000000,,,-1348408897469509807,0.0,8.516903651219655,,,24,7,0.0,84003,309705913590048,7,40.15018844604492,-269.7513620849352,0.15,25,-2550.212336406656,0.0019172512693330646,1.17645005E9,,,,0,,6,11.464778900146484,1.17645005E9
Raw,2290901,8530000000,,,-1348408897469509807,0.0,8.516903651219655,,,24,8,0.0,84003,309705916875866,8,43.40597152709961,251.51864522594906,0.15,25,3370.1093117124665,0.0013179227244108915,1.17645005E9,,,,0,,6,11.464778900146484,1.17645005E9
Raw,2290901,8530000000,,,-1348408897469509807,0.0,8.516903651219655,,,24,30,0.0,84003,309705916090340,8,42.76564025878906,-347.9378806465231,0.15,25,-4668.259047699565,0.001418751897290349,1.17645005E9,,,,0,,6,11.464778900146484,1.17645005E9
Raw,2290901,8530000000,,,-1348408897469509807,0.0,8.516903651219655,,,24,36,0.0,84003,309705911262143,8,35.22175216674805,-494.00649602950557,0.5511667755140546,25,-4165.173102300846,0.0031880466267466545,1.17645005E9,,,,0,,6,11.464778900146484,1.17645005E9
Raw,2291835,9530000000,,,-1348408897469510115,0.0,7.5024126426357265,,,24,4,0.0,16431,309706929184687,9,50.54304122924805,85.19058266562331,0.15,25,763.1289992773945,4.614157951436937E-4,1.57542003E9,,,,0,,1,18.625585556030273,1.57542003E9
Raw,2291835,9530000000,,,-1348408897469510115,0.0,7.5024126426357265,,,24,8,0.0,16431,309706924637489,10,45.8501091003418,-747.005649084349,0.15,25,-6930.295344887422,7.513810996897519E-4,1.57542003E9,,,,0,,1,18.625585556030273,1.57542003E9
Raw,2291835,9530000000,,,-1348408897469510115,0.0,7.5024126426357265,,,24,9,0.0,16431,309706925314799,11,47.565757751464844,-338.59938980664265,0.15,25,-3150.718153909369,6.500649615190923E-4,1.57542003E9,,,,0,,1,18.625585556030273,1.57542003E9
Raw,2291835,9530000000,,,-1348408897469510115,0.0,7.5024126426357265,,,24,16,0.0,16384,309706931465158,1000000000,51.835655212402344,109.90608949735667,2.99792458E8,16,20.042997776884654,3.4028234663852886E38,1.57542003E9,,,,0,,1,18.625585556030273,1.57542003E9
Raw,2291836,9530000000,,,-1348408897469510115,0.0,7.5024126426357265,,,24,26,0.0,16431,309706927787103,9,50.0169563293457,320.0031153839277,0.15,25,2974.218428102352,4.902263754047453E-4,1.57542003E9,,,,0,,1,18.625585556030273,1.57542003E9
Raw,2291836,9530000000,,,-1348408897469510115,0.0,7.5024126426357265,,,24,27,0.0,16431,309706931637690,7,53.18755340576172,-417.5219190168407,0.15,25,-3888.2329946783548,3.403039008844644E-4,1.57542003E9,,,,0,,1,18.625585556030273,1.57542003E9
Raw,2291836,9530000000,,,-1348408897469510115,0.0,7.5024126426357265,,,24,4,0.0,81921,309706929185235,7,45.77836990356445,85.2837981842132,0.15,25,1047.3586335979498,0.0010571795282885432,1.17645005E9,,,,0,,1,10.704256057739258,1.17645005E9
Raw,2291836,9530000000,,,-1348408897469510115,0.0,7.5024126426357265,,,24,8,0.0,81921,309706924638050,6,41.27381896972656,-746.9355755537381,0.15,25,-9286.53471373907,0.0016846031649038196,1.17645005E9,,,,0,,1,10.704256057739258,1.17645005E9
Raw,2291836,9530000000,,,-1348408897469510115,0.0,7.5024126426357265,,,24,9,0.0,81921,309706925315350,7,43.35444259643555,-338.4902236984001,0.15,25,-4216.997829467329,0.0013257645769044757,1.17645005E9,,,,0,,1,10.704256057739258,1.17645005E9
Raw,2291837,9530000000,,,-1348408897469510115,0.0,7.5024126426357265,,,24,26,0.0,81921,309706927787662,7,45.561798095703125,320.1311631730839,0.15,25,3975.269123142567,0.0010838701855391264,1.17645005E9,,,,0,,1,10.704256057739258,1.17645005E9
Raw,2291837,9530000000,,,-1348408897469510115,0.0,7.5024126426357265,,,24,27,0.0,81921,309706931638251,7,48.217124938964844,-417.3851120363581,0.15,25,-5196.3988622242905,7.983824471011758E-4,1.17645005E9,,,,0,,1,10.704256057739258,1.17645005E9
Raw,2291837,9530000000,,,-1348408897469510115,0.0,7.5024126426357265,,,24,13,0.0,32768,61288930774977,1000000000,44.5161247253418,-403.4639622573336,2.99792458E8,16,-66.75653966407897,3.4028234663852886E38,1.60087501E9,,,,0,,3,35.042781829833984,1.60087501E9
Raw,2291837,9530000000,,,-1348408897469510115,0.0,7.5024126426357265,,,24,12,0.0,32867,61288932113047,33,55.06101608276367,83.55368748497403,0.15,17,758.8045477476066,0.09387087211158478,1.60143744E9,,,,0,,3,35.042781829833984,1.60143744E9
Raw,2291837,9530000000,,,-1348408897469510115,0.0,7.5024126426357265,,,24,194,0.0,16431,309706868282025,8,51.84199142456055,-88.08446440467623,0.15,25,-817.3211485567276,3.973240382038057E-4,1.57542003E9,,,,0,,4,18.625585556030273,1.57542003E9
Raw,2291837,9530000000,,,-1348408897469510115,0.0,7.5024126426357265,,,24,195,0.0,16431,309706872673637,12,46.41999816894531,-116.50722227976524,0.15,25,-1072.8005980885284,7.417279412038624E-4,1.57542003E9,,,,0,,4,18.625585556030273,1.57542003E9
Raw,2291838,9530000000,,,-1348408897469510115,0.0,7.5024126426357265,,,24,199,0.0,16431,309706874123533,14,42.10979461669922,-91.6028134327542,0.15,25,-849.0161620018023,0.0011557822581380606,1.57542003E9,,,,0,,4,18.625585556030273,1.57542003E9
Raw,2291838,9530000000,,,-1348408897469510115,0.0,7.5024126426357265,,,24,194,0.0,81921,309706868282586,7,46.41902160644531,-87.97015184549872,0.15,25,-1093.4353527443204,9.820107370615005E-4,1.17645005E9,,,,0,,4,10.704256057739258,1.17645005E9
Raw,2291838,9530000000,,,-1348408897469510115,0.0,7.5024126426357265,,,24,195,0.0,81921,309706872674187,6,41.14896011352539,-116.40742884706646,0.15,25,-1449.416903661864,0.001708993804641068,1.17645005E9,,,,0,,4,10.704256057739258,1.17645005E9
Raw,2291838,9530000000,,,-1348408897469510115,0.0,7.5024126426357265,,,24,199,0.0,81921,309706874124092,7,43.302818298339844,-91.48788738935929,0.15,25,-1137.8272264152472,0.0013336677802726626,1.17645005E9,,,,1,,4,10.704256057739258,1.17645005E9
Raw,2291838,9530000000,,,-1348408897469510115,0.0,7.5024126426357265,,,24,10,0.0,81955,309692875323973,6,47.332130432128906,-176.41408391912103,0.15,16,-679.7673146939404,3.4028234663852886E38,1.56109798E9,,,,0,,5,40.819339752197266,1.56109798E9
Raw,2291838,9530000000,,,-1348408897469510115,0.0,7.5024126426357265,,,24,26,0.0,81955,309692920854426,6,49.02412033081055,-489.4165775271222,0.15,17,783172.1564238401,0.09657437479394455,1.56109798E9,,,,0,,5,40.819339752197266,1.56109798E9
Raw,2291838,9530000000,,,-1348408897469510115,0.0,7.5024126426357265,,,24,29,0.0,81955,309692923993790,6,52.4713134765625,-276.95521754910726,0.15,17,784582.2837751114,0.09639268834065613,1.56109798E9,,,,0,,5,40.819339752197266,1.56109798E9
Raw,2291839,9530000000,,,-1348408897469510115,0.0,7.5024126426357265,,,24,35,0.0,81955,309692925431102,15,32.637508392333984,-695.4484354531633,0.6708253543855975,17,-5636.01106849164,0.09929224746805583,1.56109798E9,,,,0,,5,40.819339752197266,1.56109798E9
Raw,2291839,9530000000,,,-1348408897469510115,0.0,7.5024126426357265,,,24,36,0.0,81955,309692916916098,15,33.121307373046875,331.015566075926,0.6511352136390123,16,609.6188951539358,3.4028234663852886E38,1.56109798E9,,,,0,,5,40.819339752197266,1.56109798E9
Raw,2291839,9530000000,,,-1348408897469510115,0.0,7.5024126426357265,,,24,39,0.0,81955,309692877171454,6,52.060401916503906,90.04608018984658,0.15,17,262740.12194779183,0.09641075550383855,1.56109798E9,,,,0,,5,40.819339752197266,1.56109798E9
Raw,2291839,9530000000,,,-1348408897469510115,0.0,7.5024126426357265,,,24,40,0.0,81955,309692879350832,6,53.591800689697266,-125.09504701473082,0.15,17,785596.6171593999,0.09634755202490804,1.56109798E9,,,,0,,5,40.819339752197266,1.56109798E9
Raw,2291839,9530000000,,,-1348408897469510115,0.0,7.5024126426357265,,,24,45,0.0,81955,309692926721920,6,54.28449249267578,-43.77489367368025,0.15,17,786138.2052463705,0.09632242479632576,1.56109798E9,,,,0,,5,40.819339752197266,1.56109798E9
Raw,2291839,9530000000,,,-1348408897469510115,0.0,7.5024126426357265,,,24,26,0.0,81959,309692920854492,7,40.4493522644043,-489.3290196963151,0.15,25,-5588.65488694822,0.0018523407634347677,1.17645005E9,,,,0,,5,10.704256057739258,1.17645005E9
Raw,2291839,9530000000,,,-1348408897469510115,0.0,7.5024126426357265,,,24,29,0.0,81959,309692923993864,6,43.82159423828125,-276.8653932349414,0.15,25,-3170.9095328830645,0.0012563446070998907,1.17645005E9,,,,0,,5,10.704256057739258,1.17645005E9
Raw,2291840,9530000000,,,-1348408897469510115,0.0,7.5024126426357265,,,24,35,0.0,81959,309692918431194,8,35.566444396972656,-705.0477593328128,0.5369557557736495,25,-8749.56469743913,0.003064009128138423,1.17645005E9,,,,0,,5,10.704256057739258,1.17645005E9
Raw,2291840,9530000000,,,-1348408897469510115,0.0,7.5024126426357265,,,24,36,0.0,16384,309692916967507,1000000000,12.902841567993164,331.5894123964006,2.99792458E8,16,4452.112017293851,3.4028234663852886E38,1.17645005E9,,,,0,,5,10.704256057739258,1.17645005E9
Raw,2291840,9530000000,,,-1348408897469510115,0.0,7.5024126426357265,,,24,39,0.0,81959,309692877171534,6,44.07728576660156,90.17501412287237,0.15,25,1028.0158468044874,0.0012198997428640723,1.17645005E9,,,,0,,5,10.704256057739258,1.17645005E9
Raw,2291840,9530000000,,,-1348408897469510115,0.0,7.5024126426357265,,,24,40,0.0,81959,309692879350906,6,46.48958206176758,-124.97396908793354,0.15,25,-1300.466947373723,9.740655077621341E-4,1.17645005E9,,,,0,,5,10.704256057739258,1.17645005E9
Raw,2291840,9530000000,,,-1348408897469510115,0.0,7.5024126426357265,,,24,45,0.0,81959,309692926722015,7,47.56603240966797,-43.61983979803679,0.15,25,-455.99945385137204,8.605292532593012E-4,1.17645005E9,,,,1,,5,10.704256057739258,1.17645005E9
Raw,2291840,9530000000,,,-1348408897469510115,0.0,7.5024126426357265,,,24,2,0.0,85026,309706920914281,8,51.99810791015625,40.09774596004837,0.15,25,365.61536959661356,3.9024651050567627E-4,1.57542003E9,,,,0,,6,18.625585556030273,1.57542003E9
Raw,2291840,9530000000,,,-1348408897469510115,0.0,7.5024126426357265,,,24,7,0.0,85026,309706913590396,12,44.13087844848633,-269.56349958458145,0.15,25,-2396.959734113501,9.158447501249611E-4,1.57542003E9,,,,0,,6,18.625585556030273,1.57542003E9
Raw,2291841,9530000000,,,-1348408897469510115,0.0,7.5024126426357265,,,24,8,0.0,85026,309706916874467,10,49.13930130004883,251.67399306278003,0.15,25,2385.0755741240027,5.423498223535717E-4,1.57542003E9,,,,0,,6,18.625585556030273,1.57542003E9
Raw,2291841,9530000000,,,-1348408897469510115,0.0,7.5024126426357265,,,24,25,0.0,85026,309706910322141,15,41.5311393737793,297.2381816214513,0.15,16,481.4408064719346,3.4028234663852886E38,1.57542003E9,,,,0,,6,18.625585556030273,1.57542003E9
Raw,2291841,9530000000,,,-1348408897469510115,0.0,7.5024126426357265,,,24,30,0.0,85026,309706916090948,10,48.36225128173828,-347.79384818525773,0.15,25,-3303.532798298635,5.931055056862533E-4,1.57542003E9,,,,0,,6,18.625585556030273,1.57542003E9
Raw,2291841,9530000000,,,-1348408897469510115,0.0,7.5024126426357265,,,24,36,0.0,85026,309706911263242,15,41.2581672668457,-493.80206945528175,0.15,25,-3817.170370029878,0.0012748448643833399,1.57542003E9,,,,0,,6,18.625585556030273,1.57542003E9
Raw,2291841,9530000000,,,-1348408897469510115,0.0,7.5024126426357265,,,24,2,0.0,84003,309706920914836,6,46.33085632324219,40.231059488737344,0.15,25,456.0277138587693,9.920289739966393E-4,1.17645005E9,,,,0,,6,10.704256057739258,1.17645005E9
Raw,2291841,9530000000,,,-1348408897469510115,0.0,7.5024126426357265,,,24,7,0.0,84003,309706913590948,7,40.01785659790039,-269.4565829184694,0.15,25,-2819.846457870863,0.0019466847879812121,1.17645005E9,,,,0,,6,10.704256057739258,1.17645005E9
Raw,2291842,9530000000,,,-1348408897469510115,0.0,7.5024126426357265,,,24,8,0.0,84003,309706916875025,6,43.51995849609375,251.7512750329455,0.15,25,3621.6939467446064,0.0013007399393245578,1.17645005E9,,,,0,,6,10.704256057739258,1.17645005E9
Raw,2291842,9530000000,,,-1348408897469510115,0.0,7.5024126426357265,,,24,25,0.0,16384,309706910322724,1000000000,30.5002384185791,297.5643848128311,2.99792458E8,16,1248.207500157234,3.4028234663852886E38,1.17645005E9,,,,0,,6,10.704256057739258,1.17645005E9
Raw,2291842,9530000000,,,-1348408897469510115,0.0,7.5024126426357265,,,24,30,0.0,84003,309706916091501,7,42.73673629760742,-347.7207413160163,0.15,25,-5016.1141233170665,0.0014234811533242464,1.17645005E9,,,,0,,6,10.704256057739258,1.17645005E9
Raw,2291842,9530000000,,,-1348408897469510115,0.0,7.5024126426357265,,,24,36,0.0,84003,309706911263791,7,35.34342575073242,-493.7683959882372,0.5456955094490261,25,-4659.097519179681,0.003143700072541833,1.17645005E9,,,,0,,6,10.704256057739258,1.17645005E9
Raw,2292840,10530000000,,,-1348408897469510422,0.0,6.769707991137477,,,24,4,0.0,16431,309707929184402,9,50.58433532714844,85.20971144434674,0.15,25,848.2703359103928,4.592273326124996E-4,1.57542003E9,,,,0,,1,18.4235782623291,1.57542003E9
Raw,2292840,10530000000,,,-1348408897469510422,0.0,6.769707991137477,,,24,8,0.0,16431,309707924639980,10,45.879859924316406,-747.0402086952631,0.15,25,-7677.36434314137,7.488119881600142E-4,1.57542003E9,,,,0,,1,18.4235782623291,1.57542003E9
Raw,2292841,10530000000,,,-1348408897469510422,0.0,6.769707991137477,,,24,9,0.0,16431,309707925315927,11,47.638938903808594,-338.60668345233853,0.15,25,-3489.375814304018,6.446106708608568E-4,1.57542003E9,,,,0,,1,18.4235782623291,1.57542003E9
Raw,2292841,10530000000,,,-1348408897469510422,0.0,6.769707991137477,,,24,16,0.0,16384,309707931464790,1000000000,51.85220718383789,109.90608949735667,2.99792458E8,16,20.045576218702177,3.4028234663852886E38,1.57542003E9,,,,0,,1,18.4235782623291,1.57542003E9
Raw,2292841,10530000000,,,-1348408897469510422,0.0,6.769707991137477,,,24,26,0.0,16431,309707927786034,9,50.104408264160156,319.92506655849047,0.15,25,3294.141528339239,4.8531542415730655E-4,1.57542003E9,,,,0,,1,18.4235782623291,1.57542003E9
Raw,2292841,10530000000,,,-1348408897469510422,0.0,6.769707991137477,,,24,27,0.0,16431,309707931639083,6,53.79306411743164,-417.5013332131009,0.15,25,-4305.775584312017,3.173885925207287E-4,1.57542003E9,,,,0,,1,18.4235782623291,1.57542003E9
Raw,2292841,10530000000,,,-1348408897469510422,0.0,6.769707991137477,,,24,4,0.0,81921,309707929184953,7,45.95752716064453,85.22745136296686,0.15,25,1132.4948057589108,0.0010355972917750478,1.17645005E9,,,,0,,1,9.05722713470459,1.17645005E9
Raw,2292842,10530000000,,,-1348408897469510422,0.0,6.769707991137477,,,24,8,0.0,81921,309707924640543,7,41.40681457519531,-747.0416401584371,0.15,25,-10033.609344848193,0.001659005181863904,1.17645005E9,,,,0,,1,9.05722713470459,1.17645005E9
Raw,2292842,10530000000,,,-1348408897469510422,0.0,6.769707991137477,,,24,9,0.0,81921,309707925316480,6,43.414222717285156,-338.629075626274,0.15,25,-4555.664282249388,0.001316671259701252,1.17645005E9,,,,0,,1,9.05722713470459,1.17645005E9
Raw,2292842,10530000000,,,-1348408897469510422,0.0,6.769707991137477,,,24,26,0.0,81921,309707927786595,6,45.64057159423828,319.9283725567732,0.15,25,4295.181864121409,0.0010740848956629634,1.17645005E9,,,,0,,1,9.05722713470459,1.17645005E9
Raw,2292842,10530000000,,,-1348408897469510422,0.0,6.769707991137477,,,24,27,0.0,81921,309707931639643,7,48.41680145263672,-417.50017440957913,0.15,25,-5613.95229531389,7.802382460795343E-4,1.17645005E9,,,,0,,1,9.05722713470459,1.17645005E9
Raw,2292842,10530000000,,,-1348408897469510422,0.0,6.769707991137477,,,24,13,0.0,32768,61289930776323,1000000000,43.033023834228516,-403.37272352122204,2.99792458E8,16,-66.74931505923311,3.4028234663852886E38,1.60087501E9,,,,0,,3,36.916404724121094,1.60087501E9
Raw,2292842,10530000000,,,-1348408897469510422,0.0,6.769707991137477,,,24,12,0.0,32867,61289932112807,33,54.58635711669922,83.43893185386173,0.15,17,842.3145425105981,0.09388602749473766,1.60143744E9,,,,0,,3,36.916404724121094,1.60143744E9
Raw,2292842,10530000000,,,-1348408897469510422,0.0,6.769707991137477,,,24,194,0.0,16431,309707868282318,8,51.8485107421875,-88.18263892069018,0.15,25,-905.5065651833507,3.9702592766843736E-4,1.57542003E9,,,,0,,4,18.4235782623291,1.57542003E9
Raw,2292843,10530000000,,,-1348408897469510422,0.0,6.769707991137477,,,24,195,0.0,16431,309707872674024,12,46.46198654174805,-116.62647679513856,0.15,25,-1189.4084394189879,7.381509058177471E-4,1.57542003E9,,,,0,,4,18.4235782623291,1.57542003E9
Raw,2292843,10530000000,,,-1348408897469510422,0.0,6.769707991137477,,,24,199,0.0,16431,309707874123838,14,42.336936950683594,-91.6982783934746,0.15,25,-940.7239387734054,0.0011259496677666903,1.57542003E9,,,,0,,4,18.4235782623291,1.57542003E9
Raw,2292843,10530000000,,,-1348408897469510422,0.0,6.769707991137477,,,24,194,0.0,81921,309707868282881,7,46.52907943725586,-88.22893993787642,0.15,25,-1181.633483542108,9.696463239379227E-4,1.17645005E9,,,,0,,4,9.05722713470459,1.17645005E9
Raw,2292843,10530000000,,,-1348408897469510422,0.0,6.769707991137477,,,24,195,0.0,81921,309707872674576,8,41.23489761352539,-116.56525618260946,0.15,25,-1566.0297514266797,0.001692168298177421,1.17645005E9,,,,0,,4,9.05722713470459,1.17645005E9
Raw,2292843,10530000000,,,-1348408897469510422,0.0,6.769707991137477,,,24,199,0.0,81921,309707874124398,7,43.12488555908203,-91.68089634064796,0.15,25,-1229.5452132952782,0.0013612698530778289,1.17645005E9,,,,0,,4,9.05722713470459,1.17645005E9
Raw,2292843,10530000000,,,-1348408897469510422,0.0,6.769707991137477,,,24,10,0.0,81955,309693875324562,6,47.346744537353516,-176.461475574916,0.15,17,-856.2911996778869,0.09669252365632881,1.56109798E9,,,,0,,5,41.759273529052734,1.56109798E9
Raw,2292843,10530000000,,,-1348408897469510422,0.0,6.769707991137477,,,24,26,0.0,81955,309693920856057,6,48.86528396606445,-489.43941277299245,0.15,17,782682.6484413076,0.0965846104364932,1.56109798E9,,,,0,,5,41.759273529052734,1.56109798E9
Raw,2292844,10530000000,,,-1348408897469510422,0.0,6.769707991137477,,,24,29,0.0,81955,309693923994714,6,52.3624382019043,-276.9080985529645,0.15,17,784305.2676995512,0.096397392538292,1.56109798E9,,,,0,,5,41.759273529052734,1.56109798E9
Raw,2292844,10530000000,,,-1348408897469510422,0.0,6.769707991137477,,,24,35,0.0,81955,309693925433444,16,32.229949951171875,-695.6129173883423,0.6891531288134409,16,-6331.61495851014,3.4028234663852886E38,1.56109798E9,,,,0,,5,41.759273529052734,1.56109798E9
Raw,2292844,10530000000,,,-1348408897469510422,0.0,6.769707991137477,,,24,36,0.0,81955,309693916914984,7,42.31101608276367,331.4726459003534,0.15,17,941.0457987958858,0.09715941842217897,1.56109798E9,,,,0,,5,41.759273529052734,1.56109798E9
Raw,2292844,10530000000,,,-1348408897469510422,0.0,6.769707991137477,,,24,39,0.0,81955,309693877171153,6,52.04807662963867,90.03202117653092,0.15,17,262830.0713721558,0.09641131086313133,1.56109798E9,,,,0,,5,41.759273529052734,1.56109798E9
Raw,2292844,10530000000,,,-1348408897469510422,0.0,6.769707991137477,,,24,40,0.0,81955,309693879351250,6,53.20557403564453,-125.0740863039693,0.15,17,785471.4453198804,0.09636245720243049,1.56109798E9,,,,0,,5,41.759273529052734,1.56109798E9
Raw,2292844,10530000000,,,-1348408897469510422,0.0,6.769707991137477,,,24,45,0.0,81955,309693926722063,6,53.87982940673828,-43.77038626880511,0.15,17,786094.369491162,0.09633685994698633,1.56109798E9,,,,0,,5,41.759273529052734,1.56109798E9
Raw,2292844,10530000000,,,-1348408897469510422,0.0,6.769707991137477,,,24,26,0.0,81959,309693920856125,6,40.70987319946289,-489.49513758940725,0.15,25,-6078.173293556001,0.0017976075178012252,1.17645005E9,,,,1,,5,9.05722713470459,1.17645005E9
Raw,2292845,10530000000,,,-1348408897469510422,0.0,6.769707991137477,,,24,29,0.0,81959,309693923994789,7,43.7762336730957,-276.9807282678146,0.15,25,-3447.9315146468543,0.0012629228876903653,1.17645005E9,,,,0,,5,9.05722713470459,1.17645005E9
Raw,2292845,10530000000,,,-1348408897469510422,0.0,6.769707991137477,,,24,35,0.0,81959,309693918433549,7,36.68916320800781,-705.0651413856394,0.15,25,-9454.746201085898,0.0026924903504550457,1.17645005E9,,,,0,,5,9.05722713470459,1.17645005E9
Raw,2292845,10530000000,,,-1348408897469510422,0.0,6.769707991137477,,,24,36,0.0,16384,309693916915029,1000000000,26.938756942749023,331.4329739209609,2.99792458E8,16,4783.562049752319,3.4028234663852886E38,1.17645005E9,,,,0,,5,9.05722713470459,1.17645005E9
Raw,2292845,10530000000,,,-1348408897469510422,0.0,6.769707991137477,,,24,39,0.0,81959,309693877171233,6,44.193138122558594,89.90281458385294,0.15,25,1117.9468266985562,0.0012037368724122643,1.17645005E9,,,,0,,5,9.05722713470459,1.17645005E9
Raw,2292845,10530000000,,,-1348408897469510422,0.0,6.769707991137477,,,24,40,0.0,81959,309693879351322,6,46.619754791259766,-125.19009446535881,0.15,25,-1425.6561669366442,9.595763403922319E-4,1.17645005E9,,,,0,,5,9.05722713470459,1.17645005E9
Raw,2292845,10530000000,,,-1348408897469510422,0.0,6.769707991137477,,,24,45,0.0,81959,309693926722162,6,47.72352600097656,-43.81096569360258,0.15,25,-499.8472548899205,8.450664463452995E-4,1.17645005E9,,,,0,,5,9.05722713470459,1.17645005E9
Raw,2292846,10530000000,,,-1348408897469510422,0.0,6.769707991137477,,,24,2,0.0,85026,309707920914144,8,52.03293991088867,40.02722509719561,0.15,25,405.6328114031328,3.8868479896336794E-4,1.57542003E9,,,,0,,6,18.4235782623291,1.57542003E9
Raw,2292846,10530000000,,,-1348408897469510422,0.0,6.769707991137477,,,24,7,0.0,85026,309707913591298,12,44.26056671142578,-269.5749683312014,0.15,25,-2666.566295924428,9.022716549225152E-4,1.57542003E9,,,,0,,6,18.4235782623291,1.57542003E9
Raw,2292846,10530000000,,,-1348408897469510422,0.0,6.769707991137477,,,24,8,0.0,85026,309707916873626,10,49.191036224365234,251.6337416816266,0.15,25,2636.687461187901,5.391290178522468E-4,1.57542003E9,,,,0,,6,18.4235782623291,1.57542003E9
Raw,2292846,10530000000,,,-1348408897469510422,0.0,6.769707991137477,,,24,25,0.0,85026,309707910321154,14,42.06765365600586,297.15549758192697,0.15,25,778.5871406807585,0.0011614032555371523,1.57542003E9,,,,0,,6,18.4235782623291,1.57542003E9
Raw,2292846,10530000000,,,-1348408897469510422,0.0,6.769707991137477,,,24,30,0.0,85026,309707916092106,10,48.404563903808594,-347.8639217158686,0.15,25,-3651.411142789687,5.902231787331402E-4,1.57542003E9,,,,0,,6,18.4235782623291,1.57542003E9
Raw,2292846,10530000000,,,-1348408897469510422,0.0,6.769707991137477,,,24,36,0.0,85026,309707911264887,15,41.22533416748047,-493.8807658473929,0.15,25,-4311.09079683751,0.0012796733062714338,1.57542003E9,,,,0,,6,18.4235782623291,1.57542003E9
Raw,2292846,10530000000,,,-1348408897469510422,0.0,6.769707991137477,,,24,2,0.0,84003,309707920914703,8,46.200862884521484,40.01090386082825,0.15,25,496.03297882026504,0.0010069876443594694,1.17645005E9,,,,0,,6,9.05722713470459,1.17645005E9
Raw,2292847,10530000000,,,-1348408897469510422,0.0,6.769707991137477,,,24,7,0.0,84003,309707913591847,6,40.14258575439453,-269.56729977848374,0.15,25,-3089.46055872535,0.0019189302111044526,1.17645005E9,,,,0,,6,9.05722713470459,1.17645005E9
Raw,2292847,10530000000,,,-1348408897469510422,0.0,6.769707991137477,,,24,8,0.0,84003,309707916874185,7,43.495025634765625,251.62954953947428,0.15,25,3873.29826160604,0.0013044794322922826,1.17645005E9,,,,0,,6,9.05722713470459,1.17645005E9
Raw,2292847,10530000000,,,-1348408897469510422,0.0,6.769707991137477,,,24,25,0.0,84003,309707910321725,12,32.91858673095703,297.1404331361439,0.6545683554607065,25,1545.3417474530975,0.004156071227043867,1.17645005E9,,,,0,,6,9.05722713470459,1.17645005E9
Raw,2292847,10530000000,,,-1348408897469510422,0.0,6.769707991137477,,,24,30,0.0,84003,309707916092660,6,42.76032638549805,-347.9017191601524,0.15,25,-5364.002004620383,0.0014196202391758561,1.17645005E9,,,,0,,6,9.05722713470459,1.17645005E9
Raw,2292847,10530000000,,,-1348408897469510422,0.0,6.769707991137477,,,24,36,0.0,84003,309707911265437,6,35.66245651245117,-493.89456924228466,0.5313493913775409,25,-5153.019759865236,0.003030326683074236,1.17645005E9,,,,0,,6,9.05722713470459,1.17645005E9
Raw,2293860,11530000000,,,-1348408897469510729,0.0,6.129630253977875,,,24,4,0.0,16431,309708929184116,9,50.5406608581543,85.37283860187904,0.15,25,933.5422809314985,4.615421930793673E-4,1.57542003E9,,,,0,,1,18.06900405883789,1.57542003E9
Raw,2293860,11530000000,,,-1348408897469510729,0.0,6.129630253977875,,,24,8,0.0,16431,309708924642469,10,45.893680572509766,-746.9332579466945,0.15,25,-8424.367829507317,7.476215250790119E-4,1.57542003E9,,,,0,,1,18.06900405883789,1.57542003E9
Raw,2293860,11530000000,,,-1348408897469510729,0.0,6.129630253977875,,,24,9,0.0,16431,309708925317050,11,47.695926666259766,-338.45791352961646,0.15,25,-3827.9072714085305,6.403952720575035E-4,1.57542003E9,,,,0,,1,18.06900405883789,1.57542003E9
Raw,2293861,11530000000,,,-1348408897469510729,0.0,6.129630253977875,,,24,16,0.0,16384,309708931464423,1000000000,51.88753128051758,110.09173663803642,2.99792458E8,16,20.04330958434472,3.4028234663852886E38,1.57542003E9,,,,0,,1,18.06900405883789,1.57542003E9
Raw,2293861,11530000000,,,-1348408897469510729,0.0,6.129630253977875,,,24,26,0.0,16431,309708927784970,9,50.07892990112305,320.0024678172538,0.15,25,3614.1050423755555,4.8674101708456874E-4,1.57542003E9,,,,0,,1,18.06900405883789,1.57542003E9
Raw,2293861,11530000000,,,-1348408897469510729,0.0,6.129630253977875,,,24,27,0.0,16431,309708931640477,7,53.617557525634766,-417.3074040354861,0.15,25,-4723.187405330857,3.2386690145358443E-4,1.57542003E9,,,,0,,1,18.06900405883789,1.57542003E9
Raw,2293861,11530000000,,,-1348408897469510729,0.0,6.129630253977875,,,24,4,0.0,81921,309708929184666,7,45.92681121826172,85.49678797563837,0.15,25,1217.7753266850114,0.0010392662370577455,1.17645005E9,,,,0,,1,7.30018424987793,1.17645005E9
Raw,2293861,11530000000,,,-1348408897469510729,0.0,6.129630253977875,,,24,8,0.0,81921,309708924643035,7,41.54743576049805,-746.8604578195618,0.15,25,-10780.606195225117,0.001632362836971879,1.17645005E9,,,,0,,1,7.30018424987793,1.17645005E9
Raw,2293861,11530000000,,,-1348408897469510729,0.0,6.129630253977875,,,24,9,0.0,81921,309708925317609,7,43.44366455078125,-338.3088709472422,0.15,25,-4894.181719362782,0.0013122156960889697,1.17645005E9,,,,0,,1,7.30018424987793,1.17645005E9
Raw,2293862,11530000000,,,-1348408897469510729,0.0,6.129630253977875,,,24,26,0.0,81921,309708927785528,7,45.592506408691406,320.1503175136497,0.15,25,4615.158546887806,0.0010800448944792151,1.17645005E9,,,,0,,1,7.30018424987793,1.17645005E9
Raw,2293862,11530000000,,,-1348408897469510729,0.0,6.129630253977875,,,24,27,0.0,81921,309708931641036,6,48.36474609375,-417.1981697623305,0.15,25,-6031.35339726577,7.849283865652978E-4,1.17645005E9,,,,0,,1,7.30018424987793,1.17645005E9
Raw,2293862,11530000000,,,-1348408897469510729,0.0,6.129630253977875,,,24,13,0.0,32768,61290930777669,1000000000,42.91798782348633,-403.37272352122204,2.99792458E8,16,-66.74300002656561,3.4028234663852886E38,1.60087501E9,,,,0,,3,42.069061279296875,1.60087501E9
Raw,2293862,11530000000,,,-1348408897469510729,0.0,6.129630253977875,,,24,12,0.0,32867,61290932112516,33,54.674869537353516,83.68471748907598,0.15,17,925.8882100519373,0.09388313827017673,1.60143744E9,,,,0,,3,42.069061279296875,1.60143744E9
Raw,2293862,11530000000,,,-1348408897469510729,0.0,6.129630253977875,,,24,194,0.0,16431,309708868282617,8,51.86540222167969,-88.17532823376604,0.15,25,-993.7065730784885,3.9625464705750346E-4,1.57542003E9,,,,0,,4,18.06900405883789,1.57542003E9
Raw,2293862,11530000000,,,-1348408897469510729,0.0,6.129630253977875,,,24,195,0.0,16431,309708872674410,12,46.4560661315918,-116.5269134190213,0.15,25,-1305.9926652497118,7.386542274616659E-4,1.57542003E9,,,,0,,4,18.06900405883789,1.57542003E9
Raw,2293863,11530000000,,,-1348408897469510729,0.0,6.129630253977875,,,24,199,0.0,16431,309708874124140,14,42.1784553527832,-91.65114235610355,0.15,25,-1032.4287966213374,0.001146682188846171,1.57542003E9,,,,0,,4,18.06900405883789,1.57542003E9
Raw,2293863,11530000000,,,-1348408897469510729,0.0,6.129630253977875,,,24,194,0.0,81921,309708868283176,6,46.56212615966797,-88.01828479472306,0.15,25,-1269.813717873884,9.659637580625713E-4,1.17645005E9,,,,0,,4,7.30018424987793,1.17645005E9
Raw,2293863,11530000000,,,-1348408897469510729,0.0,6.129630253977875,,,24,195,0.0,81921,309708872674965,7,41.14170837402344,-116.41940030992009,0.15,25,-1682.6094840675748,0.0017104215221479535,1.17645005E9,,,,0,,4,7.30018424987793,1.17645005E9
Raw,2293863,11530000000,,,-1348408897469510729,0.0,6.129630253977875,,,24,199,0.0,81921,309708874124703,6,43.26124954223633,-91.5777798684382,0.15,25,-1321.2451347965984,0.0013400656171143055,1.17645005E9,,,,1,,4,7.30018424987793,1.17645005E9
Raw,2293864,11530000000,,,-1348408897469510729,0.0,6.129630253977875,,,24,10,0.0,81955,309694875325150,6,47.410640716552734,-176.44278134751323,0.15,17,-1032.8031266513494,0.09668759265254219,1.56109798E9,,,,0,,5,39.931941986083984,1.56109798E9
Raw,2293864,11530000000,,,-1348408897469510729,0.0,6.129630253977875,,,24,26,0.0,81955,309694920857687,6,49.014347076416016,-489.43747007297065,0.15,17,782193.1562950512,0.09657499912931551,1.56109798E9,,,,0,,5,39.931941986083984,1.56109798E9
Raw,2293864,11530000000,,,-1348408897469510729,0.0,6.129630253977875,,,24,29,0.0,81955,309694923995634,6,52.466312408447266,-276.79746689909143,0.15,17,784028.3566688981,0.09639290315602873,1.56109798E9,,,,0,,5,39.931941986083984,1.56109798E9
Raw,2293864,11530000000,,,-1348408897469510729,0.0,6.129630253977875,,,24,35,0.0,81955,309694925435797,16,32.21479034423828,-695.4240324142929,0.6898352439149824,17,-7027.159671578018,0.09945544964206372,1.56109798E9,,,,0,,5,39.931941986083984,1.56109798E9
Raw,2293864,11530000000,,,-1348408897469510729,0.0,6.129630253977875,,,24,36,0.0,81955,309694916913873,6,42.77678298950195,331.5080234902241,0.15,17,1272.4782132942785,0.09709991482590292,1.56109798E9,,,,0,,5,39.931941986083984,1.56109798E9
Raw,2293864,11530000000,,,-1348408897469510729,0.0,6.129630253977875,,,24,39,0.0,81955,309694877170852,6,52.06647872924805,90.04613983414549,0.15,17,262920.0464508805,0.09641048213155907,1.56109798E9,,,,0,,5,39.931941986083984,1.56109798E9
Raw,2293864,11530000000,,,-1348408897469510729,0.0,6.129630253977875,,,24,40,0.0,81955,309694879351665,6,53.76910400390625,-125.10008269768207,0.15,17,785346.2800980222,0.09634092837144588,1.56109798E9,,,,0,,5,39.931941986083984,1.56109798E9
Raw,2293865,11530000000,,,-1348408897469510729,0.0,6.129630253977875,,,24,45,0.0,81955,309694926722209,6,53.40987777709961,-43.695609359194066,0.15,17,786050.5751799905,0.09635449023256977,1.56109798E9,,,,0,,5,39.931941986083984,1.56109798E9
Raw,2293865,11530000000,,,-1348408897469510729,0.0,6.129630253977875,,,24,26,0.0,81959,309694920857758,7,40.68839645385742,-489.2549244358345,0.15,25,-6567.638991848284,0.0018020577263087034,1.17645005E9,,,,0,,5,7.30018424987793,1.17645005E9
Raw,2293865,11530000000,,,-1348408897469510729,0.0,6.129630253977875,,,24,29,0.0,81959,309694923995713,6,43.8199348449707,-276.71246525252354,0.15,25,-3724.824691064906,0.0012565846554934978,1.17645005E9,,,,1,,5,7.30018424987793,1.17645005E9
Raw,2293865,11530000000,,,-1348408897469510729,0.0,6.129630253977875,,,24,35,0.0,81959,309694918435898,10,36.72698211669922,-704.9945225357242,0.15,25,-10159.897610230722,0.0026807920075953007,1.17645005E9,,,,1,,5,7.30018424987793,1.17645005E9
Raw,2293865,11530000000,,,-1348408897469510729,0.0,6.129630253977875,,,24,36,0.0,81959,309694916913924,7,33.77774429321289,331.5439123169426,0.6171187918757148,25,5114.9671174136265,0.003764654276892543,1.17645005E9,,,,0,,5,7.30018424987793,1.17645005E9
Raw,2293865,11530000000,,,-1348408897469510729,0.0,6.129630253977875,,,24,39,0.0,81959,309694877170933,7,44.09291076660156,90.12208406789244,0.15,25,1207.9453999667708,0.0012177075259387493,1.17645005E9,,,,0,,5,7.30018424987793,1.17645005E9
Raw,2293866,11530000000,,,-1348408897469510729,0.0,6.129630253977875,,,24,40,0.0,81959,309694879351740,7,46.648773193359375,-124.98550599946651,0.15,25,-1550.7959298247633,9.56375733949244E-4,1.17645005E9,,,,1,,5,7.30018424987793,1.17645005E9
Raw,2293866,11530000000,,,-1348408897469510729,0.0,6.129630253977875,,,24,45,0.0,81959,309694926722305,7,47.69487762451172,-43.56029774649144,0.15,25,-543.6254335438417,8.478584350086749E-4,1.17645005E9,,,,1,,5,7.30018424987793,1.17645005E9
Raw,2293866,11530000000,,,-1348408897469510729,0.0,6.129630253977875,,,24,2,0.0,85026,309708920914013,8,52.01553726196289,40.08035964691467,0.15,25,445.6797658571807,3.894642577506602E-4,1.57542003E9,,,,0,,6,18.06900405883789,1.57542003E9
Raw,2293866,11530000000,,,-1348408897469510729,0.0,6.129630253977875,,,24,7,0.0,85026,309708913592195,12,44.04966354370117,-269.4357414963057,0.15,25,-2936.0794166744395,9.244481916539371E-4,1.57542003E9,,,,0,,6,18.06900405883789,1.57542003E9
Raw,2293866,11530000000,,,-1348408897469510729,0.0,6.129630253977875,,,24,8,0.0,85026,309708916872787,10,49.133941650390625,251.7577166172283,0.15,25,2888.377332540901,5.426846328191459E-4,1.57542003E9,,,,0,,6,18.06900405883789,1.57542003E9
Raw,2293866,11530000000,,,-1348408897469510729,0.0,6.129630253977875,,,24,25,0.0,85026,309708910320179,14,42.107234954833984,297.19847555960223,0.15,25,1075.7388386502344,0.001156123005785048,1.57542003E9,,,,0,,6,18.06900405883789,1.57542003E9
Raw,2293866,11530000000,,,-1348408897469510729,0.0,6.129630253977875,,,24,30,0.0,85026,309708916093266,10,48.39675521850586,-347.80226655201886,0.15,25,-3999.26038341455,5.907541490159929E-4,1.57542003E9,,,,0,,6,18.06900405883789,1.57542003E9
Raw,2293867,11530000000,,,-1348408897469510729,0.0,6.129630253977875,,,24,36,0.0,85026,309708911266535,15,41.12613296508789,-493.7314506053665,0.15,25,-4804.942092097585,0.0012943721376359463,1.57542003E9,,,,0,,6,18.06900405883789,1.57542003E9
Raw,2293867,11530000000,,,-1348408897469510729,0.0,6.129630253977875,,,24,2,0.0,84003,309708920914568,6,46.36732864379883,40.24662665075414,0.15,25,536.0948219173695,9.878721321001649E-4,1.17645005E9,,,,0,,6,7.30018424987793,1.17645005E9
Raw,2293867,11530000000,,,-1348408897469510729,0.0,6.129630253977875,,,24,7,0.0,84003,309708913592747,8,40.064735412597656,-269.2944356315621,0.15,25,-3358.965793100274,0.0019362068269401789,1.17645005E9,,,,0,,6,7.30018424987793,1.17645005E9
Raw,2293867,11530000000,,,-1348408897469510729,0.0,6.129630253977875,,,24,8,0.0,84003,309708916873346,6,43.56769943237305,251.91856877078772,0.15,25,4125.002706801718,0.0012936103157699108,1.17645005E9,,,,0,,6,7.30018424987793,1.17645005E9
Raw,2293867,11530000000,,,-1348408897469510729,0.0,6.129630253977875,,,24,25,0.0,84003,309708910320731,8,33.62199020385742,297.2783989201482,0.622936906846431,25,1842.4988414901586,0.003832770511507988,1.17645005E9,,,,0,,6,7.30018424987793,1.17645005E9
Raw,2293867,11530000000,,,-1348408897469510729,0.0,6.129630253977875,,,24,30,0.0,84003,309708916093821,7,42.77233123779297,-347.63642131857887,0.15,25,-5711.833447553031,0.0014176595723256469,1.17645005E9,,,,1,,6,7.30018424987793,1.17645005E9
Raw,2293867,11530000000,,,-1348408897469510729,0.0,6.129630253977875,,,24,36,0.0,84003,309708911267085,8,35.63730239868164,-493.72647456671416,0.5324808357398811,25,-5646.872945869864,0.0030391160398721695,1.17645005E9,,,,0,,6,7.30018424987793,1.17645005E9
Raw,2294862,12530000000,,,-1348408897469511036,0.0,5.839094239796832,,,24,4,0.0,16431,309709929183829,9,50.5137825012207,85.70367700734596,0.15,25,1019.0774820000432,4.6297270455397666E-4,1.57542003E9,,,,0,,1,19.80038833618164,1.57542003E9
Raw,2294863,12530000000,,,-1348408897469511036,0.0,5.839094239796832,,,24,8,0.0,16431,309709924644959,10,45.808040618896484,-746.669459733208,0.15,25,-9171.173574490746,7.550293812528253E-4,1.57542003E9,,,,0,,1,19.80038833618164,1.57542003E9
Raw,2294863,12530000000,,,-1348408897469511036,0.0,5.839094239796832,,,24,9,0.0,16431,309709925318181,11,47.684085845947266,-338.09602600625726,0.15,25,-4166.17781261577,6.412688526324928E-4,1.57542003E9,,,,0,,1,19.80038833618164,1.57542003E9
Raw,2294863,12530000000,,,-1348408897469511036,0.0,5.839094239796832,,,24,16,0.0,16384,309709931464056,1000000000,51.783592224121094,110.09173663803642,2.99792458E8,16,20.045892381656774,3.4028234663852886E38,1.57542003E9,,,,0,,1,19.80038833618164,1.57542003E9
Raw,2294864,12530000000,,,-1348408897469511036,0.0,5.839094239796832,,,24,26,0.0,16431,309709927783899,9,49.969966888427734,320.2640165886098,0.15,25,3934.24550058487,4.928855341859162E-4,1.57542003E9,,,,0,,1,19.80038833618164,1.57542003E9
Raw,2294864,12530000000,,,-1348408897469511036,0.0,5.839094239796832,,,24,27,0.0,16431,309709931641867,7,53.66180419921875,-416.9879150880413,0.15,25,-5140.337690672096,3.222213126718998E-4,1.57542003E9,,,,0,,1,19.80038833618164,1.57542003E9
Raw,2294864,12530000000,,,-1348408897469511036,0.0,5.839094239796832,,,24,4,0.0,81921,309709929184382,6,45.84381866455078,85.62829513413163,0.15,25,1303.3136737349287,0.0010492432629689574,1.17645005E9,,,,0,,1,13.544873237609863,1.17645005E9
Raw,2294865,12530000000,,,-1348408897469511036,0.0,5.839094239796832,,,24,8,0.0,81921,309709924645524,6,41.32056427001953,-746.6391263469027,0.15,25,-11527.398759099577,0.0016755610704421997,1.17645005E9,,,,0,,1,13.544873237609863,1.17645005E9
Raw,2294865,12530000000,,,-1348408897469511036,0.0,5.839094239796832,,,24,9,0.0,81921,309709925318737,7,43.34544372558594,-338.11272640995344,0.15,25,-5232.4477884389025,0.0013271387433633208,1.17645005E9,,,,1,,1,13.544873237609863,1.17645005E9
Raw,2294865,12530000000,,,-1348408897469511036,0.0,5.839094239796832,,,24,26,0.0,81921,309709927784460,6,45.666561126708984,320.2255715776521,0.15,25,4935.303923930134,0.0010708760237321258,1.17645005E9,,,,1,,1,13.544873237609863,1.17645005E9
Raw,2294865,12530000000,,,-1348408897469511036,0.0,5.839094239796832,,,24,27,0.0,81921,309709931642426,7,48.35578155517578,-417.01821439189007,0.15,25,-6448.4977086009785,7.857389282435179E-4,1.17645005E9,,,,0,,1,13.544873237609863,1.17645005E9
Raw,2294865,12530000000,,,-1348408897469511036,0.0,5.839094239796832,,,24,13,0.0,32768,61291930779014,1000000000,42.6931266784668,-403.37272352122204,2.99792458E8,16,-66.76194512453908,3.4028234663852886E38,1.60087501E9,,,,0,,3,43.00210189819336,1.60087501E9
Raw,2294866,12530000000,,,-1348408897469511036,0.0,5.839094239796832,,,24,12,0.0,32995,61291932111646,33,54.66444778442383,83.89387300414234,0.15,25,1009.723021995902,2.824284019879997E-4,1.60143744E9,,,,0,,3,43.00210189819336,1.60143744E9
