# 
# Header Description:
# 
# # Version: v2.0.0.1 SX Platform: 10 Manufacturer: Xiaomi Model: MI 8
# 
# Raw,ElapsedRealtimeMillis,TimeNanos,LeapSecond,TimeUncertaintyNanos,FullBiasNanos,BiasNanos,BiasUncertaintyNanos,DriftNanosPerSecond,DriftUncertaintyNanosPerSecond,HardwareClockDiscontinuityCount,Svid,TimeOffsetNanos,State,ReceivedSvTimeNanos,ReceivedSvTimeUncertaintyNanos,Cn0DbHz,PseudorangeRateMetersPerSecond,PseudorangeRateUncertaintyMetersPerSecond,AccumulatedDeltaRangeState,AccumulatedDeltaRangeMeters,AccumulatedDeltaRangeUncertaintyMeters,CarrierFrequencyHz,CarrierCycles,CarrierPhase,CarrierPhaseUncertainty,MultipathIndicator,SnrInDb,ConstellationType,AgcDb,CarrierFrequencyHz
# 
# 
# Nav,Svid,Type,Status,MessageId,Sub-messageId,Data(Bytes)
# 
Raw,1186074,312531000000,,,-1348408593469036600,0.0,3.9972818778780455,,,0,4,0.0,47,309705929711760,9,46.173011779785156,152.4948104191135,9.410743950866163E-4,17,49919.77467885235,0.09561737359672574,1.57542003E9,,,,0,,1,35.44154739379883,1.57542003E9
Raw,1186075,312531000000,,,-1348408593469036600,0.0,3.9972818778780455,,,0,7,0.0,47,309705916022771,28,29.599266052246094,-616.2365700964001,0.005673566367477179,17,-234969.84282705886,0.09798361958292102,1.57542003E9,,,,0,,1,35.44154739379883,1.57542003E9
Raw,1186075,312531000000,,,-1348408593469036600,0.0,3.9972818778780455,,,0,8,0.0,47,309705925161790,10,41.440040588378906,-679.581762966176,0.0015395497903227808,17,-264173.9194361555,0.09591661129434383,1.57542003E9,,,,0,,1,35.44154739379883,1.57542003E9
Raw,1186075,312531000000,,,-1348408593469036600,0.0,3.9972818778780455,,,0,9,0.0,47,309705925840459,11,43.09260940551758,-271.2776361637516,0.001341664814390242,17,-111856.77353681266,0.09581766880637756,1.57542003E9,,,,0,,1,35.44154739379883,1.57542003E9
Raw,1186075,312531000000,,,-1348408593469036600,0.0,3.9972818778780455,,,0,16,0.0,47,309705931992315,7,48.292762756347656,177.5841503296615,7.372867548838258E-4,17,63183.17215689525,3.686433774419129E-4,1.57542003E9,,,,0,,1,35.44154739379883,1.57542003E9
Raw,1186075,312531000000,,,-1348408593469036600,0.0,3.9972818778780455,,,0,18,0.0,47,309705919014998,16,36.59613800048828,-101.32024560241553,0.002688987646251917,17,-46096.376579801385,0.0964913302223084,1.57542003E9,,,,0,,1,35.44154739379883,1.57542003E9
Raw,1186075,312531000000,,,-1348408593469036600,0.0,3.9972818778780455,,,0,26,0.0,47,309705928314958,9,45.675315856933594,387.4540298411448,9.965719655156136E-4,17,145993.30359305954,0.09564512238194024,1.57542003E9,,,,0,,1,35.44154739379883,1.57542003E9
Raw,1186075,312531000000,,,-1348408593469036600,0.0,3.9972818778780455,,,0,27,0.0,47,309705932163095,7,49.474361419677734,-350.1771879006992,6.435114773921669E-4,17,-142335.0162069875,3.217557386960834E-4,1.57542003E9,,,,0,,1,35.44154739379883,1.57542003E9
Raw,1186076,312531000000,,,-1348408593469036600,0.0,3.9972818778780455,,,0,31,0.0,47,309705920076543,13,38.576236724853516,542.2205222023185,0.0021408386528491974,17,205096.55653469844,0.09621725572560703,1.57542003E9,,,,0,,1,35.44154739379883,1.57542003E9
Raw,1186076,312531000000,,,-1348408593469036600,0.0,3.9972818778780455,,,0,8,0.0,81929,309705925161789,8,36.74897003173828,-679.5877961373772,0.0035381002817302942,17,-342904.8745385361,0.0017690501408651471,1.17645005E9,,,,0,,1,8.278562545776367,1.17645005E9
Raw,1186076,312531000000,,,-1348408593469036600,0.0,3.9972818778780455,,,0,9,0.0,81929,309705925840447,8,38.951942443847656,-271.26259842023137,0.0027455000672489405,17,-146595.6955884922,0.0013727500336244702,1.17645005E9,,,,0,,1,8.278562545776367,1.17645005E9
Raw,1186076,312531000000,,,-1348408593469036600,0.0,3.9972818778780455,,,0,26,0.0,81929,309705928314958,8,40.99061965942383,387.46461593778804,0.0021711389999836683,17,188669.77686820988,0.0010855694999918342,1.17645005E9,,,,0,,1,8.278562545776367,1.17645005E9
Raw,1186076,312531000000,,,-1348408593469036600,0.0,3.9972818778780455,,,0,27,0.0,81929,309705932163087,8,43.79206085205078,-350.17873315000907,0.0016576553462073207,17,-185298.98799764476,8.288276731036603E-4,1.17645005E9,,,,0,,1,8.278562545776367,1.17645005E9
Raw,1186076,312531000000,,,-1348408593469036600,0.0,3.9972818778780455,,,0,2,0.0,227,61287925882986,33,47.4991455078125,689.002979076351,7.955388282425702E-4,17,257242.5480831687,3.977694141212851E-4,1.59975002E9,,,,0,,3,36.6357536315918,1.59975002E9
Raw,1186076,312531000000,,,-1348408593469036600,0.0,3.9972818778780455,,,0,13,0.0,227,61287931299273,33,42.051761627197266,-335.8853859548108,0.0014884191332384944,17,-129824.32872478694,7.442095666192472E-4,1.60087501E9,,,,0,,3,36.6357536315918,1.60087501E9
Raw,1186077,312531000000,,,-1348408593469036600,0.0,3.9972818778780455,,,0,100,0.0,227,61287921049799,33,41.61547088623047,490.7340150719683,0.0015639928169548512,17,184951.04246308192,7.819964084774256E-4,1.602E9,,,,0,,3,36.6357536315918,1.602E9
Raw,1186077,312531000000,,,-1348408593469036600,0.0,3.9972818778780455,,,0,23,0.0,227,61287924755950,33,43.574851989746094,-831.5365046015359,0.0012468333588913083,17,-317653.8506274177,6.234166794456542E-4,1.60368755E9,,,,0,,3,36.6357536315918,1.60368755E9
Raw,1186077,312531000000,,,-1348408593469036600,0.0,3.9972818778780455,,,0,3,0.0,227,61287929052989,33,48.895896911621094,121.61694363854622,6.752298213541508E-4,17,35338.97085644468,3.376149106770754E-4,1.60481254E9,,,,0,,3,36.6357536315918,1.60481254E9
Raw,1186077,312531000000,,,-1348408593469036600,0.0,3.9972818778780455,,,0,106,0.0,227,61287922528695,33,42.0845947265625,-496.9682883590867,0.0014786473475396633,17,-196447.53332733453,7.393236737698317E-4,1.60537498E9,,,,0,,3,36.6357536315918,1.60537498E9
Raw,1186077,312531000000,,,-1348408593469036600,0.0,3.9972818778780455,,,0,194,0.0,47,309705868808525,8,47.46963882446289,-20.547821554987422,8.105736342258751E-4,17,-6750.653973626712,0.09555212321629537,1.57542003E9,,,,0,,4,35.44154739379883,1.57542003E9
Raw,1186077,312531000000,,,-1348408593469036600,0.0,3.9972818778780455,,,0,195,0.0,47,309705873200036,12,42.00983810424805,-49.0188304938456,0.0015197863103821874,17,-19303.027887184016,0.09590672955437353,1.57542003E9,,,,0,,4,35.44154739379883,1.57542003E9
Raw,1186078,312531000000,,,-1348408593469036600,0.0,3.9972818778780455,,,0,194,0.0,81929,309705868808522,8,41.998023986816406,-20.555033783237377,0.0020379622001200914,17,-7847.530778000137,0.0010189811000600457,1.17645005E9,,,,0,,4,8.278562545776367,1.17645005E9
Raw,1186078,312531000000,,,-1348408593469036600,0.0,3.9972818778780455,,,0,195,0.0,81929,309705873200027,7,36.56288146972656,-49.01226109172421,0.0036147187929600477,17,-22871.784542774418,0.0018073593964800239,1.17645005E9,,,,0,,4,8.278562545776367,1.17645005E9
Raw,1186078,312531000000,,,-1348408593469036600,0.0,3.9972818778780455,,,0,1,0.0,809,309691873151996,12,40.03204345703125,-25.576544175353774,0.0018270891159772873,17,-9577.278358600044,9.135445579886436E-4,1.56109798E9,,,,0,,5,46.002220153808594,1.56109798E9
Raw,1186078,312531000000,,,-1348408593469036600,0.0,3.9972818778780455,,,0,2,0.0,809,309691872497300,15,37.279048919677734,-26.554307949743816,0.0023650114890187974,17,-9969.887268140355,0.001182505744509399,1.56109798E9,,,,0,,5,46.002220153808594,1.56109798E9
Raw,1186078,312531000000,,,-1348408593469036600,0.0,3.9972818778780455,,,0,4,0.0,809,309691869534762,17,35.876731872558594,-29.010190307750236,0.0027793871704488993,17,-10901.55423961164,0.0013896935852244496,1.56109798E9,,,,0,,5,46.002220153808594,1.56109798E9
Raw,1186078,312531000000,,,-1348408593469036600,0.0,3.9972818778780455,,,0,5,0.0,809,309691866688144,23,31.75094223022461,-17.036487604718225,0.5213305137894415,20,-6397.194510672314,3.4028234663852886E38,1.56109798E9,,,,0,,5,46.002220153808594,1.56109798E9
Raw,1186078,312531000000,,,-1348408593469036600,0.0,3.9972818778780455,,,0,7,0.0,65583,309691878612952,6,45.922183990478516,-88.56569356972614,9.775330545380712E-4,17,-34432.87887267547,4.887665272690356E-4,1.56109798E9,,,,0,,5,46.002220153808594,1.56109798E9
Raw,1186079,312531000000,,,-1348408593469036600,0.0,3.9972818778780455,,,0,10,0.0,65583,309691875849686,6,42.793800354003906,-108.94534993310663,0.0014013631734997034,17,-42089.717874991904,7.006815867498517E-4,1.56109798E9,,,,0,,5,46.002220153808594,1.56109798E9
Raw,1186079,312531000000,,,-1348408593469036600,0.0,3.9972818778780455,,,0,14,0.0,65583,309691914404988,10,32.88032913208008,-128.7855614336586,0.0041624149307608604,17,-55185.64781439458,0.0020812074653804302,1.56109798E9,,,,0,,5,46.002220153808594,1.56109798E9
Raw,1186079,312531000000,,,-1348408593469036600,0.0,3.9972818778780455,,,0,21,0.0,65583,309691915746611,6,39.1378288269043,475.4998569947493,0.0020252119284123182,17,177669.29599870942,0.0010126059642061591,1.56109798E9,,,,0,,5,46.002220153808594,1.56109798E9
Raw,1186079,312531000000,,,-1348408593469036600,0.0,3.9972818778780455,,,0,26,0.0,65583,309691921379090,6,44.35373306274414,-421.9379870360426,0.0011709921527653933,17,-161191.84779390992,5.854960763826966E-4,1.56109798E9,,,,0,,5,46.002220153808594,1.56109798E9
Raw,1186079,312531000000,,,-1348408593469036600,0.0,3.9972818778780455,,,0,29,0.0,65583,309691924519166,6,47.95376968383789,-209.6127293441532,7.736637489870191E-4,17,-86368.9668183402,3.8683187449350953E-4,1.56109798E9,,,,0,,5,46.002220153808594,1.56109798E9
Raw,1186080,312531000000,,,-1348408593469036600,0.0,3.9972818778780455,,,0,30,0.0,65583,309691917294392,6,38.99247741699219,364.962710452819,0.002059387508779764,17,132687.96423720656,0.001029693754389882,1.56109798E9,,,,0,,5,46.002220153808594,1.56109798E9
Raw,1186080,312531000000,,,-1348408593469036600,0.0,3.9972818778780455,,,0,35,0.0,65583,309691918955073,6,42.22319030761719,-637.6544362201239,0.001496515003964305,17,-243583.71567703318,7.482575019821525E-4,1.56109798E9,,,,0,,5,46.002220153808594,1.56109798E9
Raw,1186080,312531000000,,,-1348408593469036600,0.0,3.9972818778780455,,,0,36,0.0,65583,309691917443490,7,38.26402282714844,398.9585963093268,0.002239550231024623,17,149755.19439371894,0.0011197751155123115,1.56109798E9,,,,0,,5,46.002220153808594,1.56109798E9
Raw,1186080,312531000000,,,-1348408593469036600,0.0,3.9972818778780455,,,0,2,0.0,16392,309705921441208,1000000000,47.467071533203125,107.30696136292715,2.99792458E8,18,0.2957190907636571,3.4028234663852886E38,1.57542003E9,,,,0,,6,35.44154739379883,1.57542003E9
Raw,1186080,312531000000,,,-1348408593469036600,0.0,3.9972818778780455,,,0,3,0.0,16392,309705908761027,1000000000,35.26276397705078,570.137842462768,2.99792458E8,18,2.8431073283501913,3.4028234663852886E38,1.57542003E9,,,,0,,6,35.44154739379883,1.57542003E9
Raw,1186080,312531000000,,,-1348408593469036600,0.0,3.9972818778780455,,,0,7,0.0,16392,309705914116308,1000000000,39.433929443359375,-202.3608706164257,2.99792458E8,18,-0.7819586589142593,3.4028234663852886E38,1.57542003E9,,,,0,,6,35.44154739379883,1.57542003E9
Raw,1186081,312531000000,,,-1348408593469036600,0.0,3.9972818778780455,,,0,8,0.0,16392,309705917402116,1000000000,44.339385986328125,318.76479749108444,2.99792458E8,18,0.6937628566563392,3.4028234663852886E38,1.57542003E9,,,,0,,6,35.44154739379883,1.57542003E9
Raw,1186081,312531000000,,,-1348408593469036600,0.0,3.9972818778780455,,,0,10,0.0,16392,309705905552885,1000000000,24.700300216674805,215.17088118912181,2.99792458E8,18,0.40169168889471407,3.4028234663852886E38,1.57542003E9,,,,0,,6,35.44154739379883,1.57542003E9
Raw,1186081,312531000000,,,-1348408593469036600,0.0,3.9972818778780455,,,0,25,0.0,16392,309705910849984,1000000000,36.67753601074219,364.4352210667373,2.99792458E8,18,1.8645986161758663,3.4028234663852886E38,1.57542003E9,,,,0,,6,35.44154739379883,1.57542003E9
Raw,1186081,312531000000,,,-1348408593469036600,0.0,3.9972818778780455,,,0,30,0.0,16392,309705916616592,1000000000,43.779876708984375,-280.52044699613236,2.99792458E8,18,-2.2597477592023756,3.4028234663852886E38,1.57542003E9,,,,0,,6,35.44154739379883,1.57542003E9
Raw,1186081,312531000000,,,-1348408593469036600,0.0,3.9972818778780455,,,0,36,0.0,16392,309705911788415,1000000000,36.3870849609375,-426.6286832348226,2.99792458E8,18,-2.605295171681677,3.4028234663852886E38,1.57542003E9,,,,0,,6,35.44154739379883,1.57542003E9
Raw,1187104,313531000000,,,-1348408593469036684,0.0,3.979495865688516,,,0,4,0.0,47,309706929711258,9,46.334144592285156,152.58110981949721,9.237774065695703E-4,17,50072.35578867185,0.09560872510246722,1.57542003E9,,,,0,,1,35.59573745727539,1.57542003E9
Raw,1187104,313531000000,,,-1348408593469036684,0.0,3.979495865688516,,,0,7,0.0,47,309706916024821,28,29.50067901611328,-616.2928536285181,0.005738329142332077,17,-235586.13568068738,0.09801600097034847,1.57542003E9,,,,0,,1,35.59573745727539,1.57542003E9
Raw,1187105,313531000000,,,-1348408593469036684,0.0,3.979495865688516,,,0,8,0.0,47,309706925164059,10,41.59638214111328,-679.5694424987887,0.0015120860189199445,17,-264853.4888786543,0.09590287940864241,1.57542003E9,,,,0,,1,35.59573745727539,1.57542003E9
Raw,1187105,313531000000,,,-1348408593469036684,0.0,3.979495865688516,,,0,9,0.0,47,309706925841372,11,43.36124038696289,-271.2135801939876,0.0013008059468120337,17,-112127.98711700665,0.09579723937258845,1.57542003E9,,,,0,,1,35.59573745727539,1.57542003E9
Raw,1187105,313531000000,,,-1348408593469036684,0.0,3.979495865688516,,,0,16,0.0,47,309706931991729,7,48.420963287353516,177.60396091960865,7.264844025485218E-4,17,63360.77611781486,3.632422012742609E-4,1.57542003E9,,,,0,,1,35.59573745727539,1.57542003E9
Raw,1187105,313531000000,,,-1348408593469036684,0.0,3.979495865688516,,,0,18,0.0,47,309706919015329,16,36.654815673828125,-101.26297995549248,0.002670883433893323,17,-46197.63955975688,0.0964822781161291,1.57542003E9,,,,0,,1,35.59573745727539,1.57542003E9
Raw,1187105,313531000000,,,-1348408593469036684,0.0,3.979495865688516,,,0,26,0.0,47,309706928313674,9,45.73770523071289,387.4523439234472,9.89439431577921E-4,17,146380.75593698298,0.0956415561149714,1.57542003E9,,,,0,,1,35.59573745727539,1.57542003E9
Raw,1187105,313531000000,,,-1348408593469036684,0.0,3.979495865688516,,,0,27,0.0,47,309706932164268,7,49.40538787841797,-350.1108792209707,6.486419588327408E-4,17,-142685.12708620846,3.243209794163704E-4,1.57542003E9,,,,0,,1,35.59573745727539,1.57542003E9
Raw,1187105,313531000000,,,-1348408593469036684,0.0,3.979495865688516,,,0,31,0.0,47,309706920074732,13,38.93341064453125,542.581665127228,0.2014705035843195,20,205638.78654594708,3.4028234663852886E38,1.57542003E9,,,,0,,1,35.59573745727539,1.57542003E9
Raw,1187105,313531000000,,,-1348408593469036684,0.0,3.979495865688516,,,0,8,0.0,81929,309706925164055,7,36.735076904296875,-679.5641655808431,0.003543763654306531,17,-343584.43870411697,0.0017718818271532655,1.17645005E9,,,,0,,1,8.687385559082031,1.17645005E9
Raw,1187106,313531000000,,,-1348408593469036684,0.0,3.979495865688516,,,0,9,0.0,81929,309706925841355,8,38.99714660644531,-271.2103068243596,0.0027312487363815308,17,-146866.90589531657,0.0013656243681907654,1.17645005E9,,,,0,,1,8.687385559082031,1.17645005E9
Raw,1187106,313531000000,,,-1348408593469036684,0.0,3.979495865688516,,,0,26,0.0,81929,309706928313666,8,40.94074630737305,387.466075887467,0.0021836408413946633,17,189057.24294409735,0.0010918204206973314,1.17645005E9,,,,0,,1,8.687385559082031,1.17645005E9
Raw,1187106,313531000000,,,-1348408593469036684,0.0,3.979495865688516,,,0,27,0.0,81929,309706932164256,8,43.86872100830078,-350.09530962229474,0.0016430894611403346,17,-185649.08330726705,8.215447305701673E-4,1.17645005E9,,,,0,,1,8.687385559082031,1.17645005E9
Raw,1187106,313531000000,,,-1348408593469036684,0.0,3.979495865688516,,,0,2,0.0,227,61288925880680,33,47.60102462768555,689.0211579497845,7.862625643610954E-4,17,257931.56924111847,3.931312821805477E-4,1.59975002E9,,,,0,,3,39.33348846435547,1.59975002E9
Raw,1187106,313531000000,,,-1348408593469036684,0.0,3.979495865688516,,,0,13,0.0,227,61288931300387,33,42.1337890625,-335.89719740714645,0.001474429271183908,17,-130160.22592219409,7.37214635591954E-4,1.60087501E9,,,,0,,3,39.33348846435547,1.60087501E9
Raw,1187106,313531000000,,,-1348408593469036684,0.0,3.979495865688516,,,0,100,0.0,227,61288921048150,33,41.68769073486328,490.7061748208653,0.0015510431258007884,17,185441.74863790278,7.755215629003942E-4,1.602E9,,,,0,,3,39.33348846435547,1.602E9
Raw,1187106,313531000000,,,-1348408593469036684,0.0,3.979495865688516,,,0,23,0.0,227,61288924758714,33,43.781333923339844,-831.5434901345288,0.0012175432639196513,17,-318485.3941175522,6.087716319598258E-4,1.60368755E9,,,,0,,3,39.33348846435547,1.60368755E9
Raw,1187107,313531000000,,,-1348408593469036684,0.0,3.979495865688516,,,0,3,0.0,227,61288929052572,33,48.82463073730469,121.74965200219594,6.807929603382945E-4,17,35460.72050844687,3.4039648016914725E-4,1.60481254E9,,,,0,,3,39.33348846435547,1.60481254E9
Raw,1187107,313531000000,,,-1348408593469036684,0.0,3.979495865688516,,,0,106,0.0,227,61288922530359,33,42.11231231689453,-496.88166181280394,0.001473936252295971,17,-196944.41498914734,7.369681261479855E-4,1.60537498E9,,,,0,,3,39.33348846435547,1.60537498E9
Raw,1187107,313531000000,,,-1348408593469036684,0.0,3.979495865688516,,,0,194,0.0,47,309706868808601,8,47.56510925292969,-20.61104793110735,8.017133222892879E-4,17,-6771.26502155782,0.09554769306032708,1.57542003E9,,,,0,,4,35.59573745727539,1.57542003E9
Raw,1187107,313531000000,,,-1348408593469036684,0.0,3.979495865688516,,,0,195,0.0,47,309706873200214,12,42.1716194152832,-49.056581534176075,0.001491740928031504,17,-19352.084468718193,0.09589270686319819,1.57542003E9,,,,0,,4,35.59573745727539,1.57542003E9
Raw,1187107,313531000000,,,-1348408593469036684,0.0,3.979495865688516,,,0,194,0.0,81929,309706868808592,8,42.13350296020508,-20.599242608455825,0.00200642179697752,17,-7868.1300206085925,0.00100321089848876,1.17645005E9,,,,0,,4,8.687385559082031,1.17645005E9
Raw,1187108,313531000000,,,-1348408593469036684,0.0,3.979495865688516,,,0,195,0.0,81929,309706873200192,8,36.70072937011719,-49.05909426830476,0.003557804506272078,17,-22920.843637042723,0.0017789022531360388,1.17645005E9,,,,0,,4,8.687385559082031,1.17645005E9
Raw,1187108,313531000000,,,-1348408593469036684,0.0,3.979495865688516,,,0,1,0.0,809,309692873152078,12,40.21092987060547,-25.622369936718314,0.0017898452933877707,17,-9602.900728536762,8.949226466938853E-4,1.56109798E9,,,,0,,5,44.720741271972656,1.56109798E9
Raw,1187108,313531000000,,,-1348408593469036684,0.0,3.979495865688516,,,0,2,0.0,809,309692872497390,15,37.26978302001953,-26.595979049969174,0.0023675353731960063,17,-9996.483247190325,0.001183767686598003,1.56109798E9,,,,0,,5,44.720741271972656,1.56109798E9
Raw,1187108,313531000000,,,-1348408593469036684,0.0,3.979495865688516,,,0,4,0.0,809,309692869534858,16,36.06759262084961,-29.05029329323043,0.00271897972561419,17,-10930.60453290487,0.001359489862807095,1.56109798E9,,,,0,,5,44.720741271972656,1.56109798E9
Raw,1187108,313531000000,,,-1348408593469036684,0.0,3.979495865688516,,,0,5,0.0,809,309692866688199,23,31.922210693359375,-17.10978405762406,0.513628777273808,20,-6414.439411337851,3.4028234663852886E38,1.56109798E9,,,,0,,5,44.720741271972656,1.56109798E9
Raw,1187108,313531000000,,,-1348408593469036684,0.0,3.979495865688516,,,0,7,0.0,65583,309692878613244,6,46.04727554321289,-88.6055276447587,9.635555907152593E-4,17,-34521.48440032023,4.8177779535762966E-4,1.56109798E9,,,,0,,5,44.720741271972656,1.56109798E9
Raw,1187108,313531000000,,,-1348408593469036684,0.0,3.979495865688516,,,0,10,0.0,65583,309692875850041,6,42.940025329589844,-108.9757319563796,0.001377968699671328,17,-42198.69360694828,6.88984349835664E-4,1.56109798E9,,,,0,,5,44.720741271972656,1.56109798E9
Raw,1187108,313531000000,,,-1348408593469036684,0.0,3.979495865688516,,,0,14,0.0,65583,309692914405419,10,33.03287124633789,-128.7210290115254,0.004089953377842903,17,-55314.368843406104,0.0020449766889214516,1.56109798E9,,,,0,,5,44.720741271972656,1.56109798E9
Raw,1187109,313531000000,,,-1348408593469036684,0.0,3.979495865688516,,,0,21,0.0,65583,309692915745022,6,39.28219985961914,475.48850149483775,0.001991828205063939,17,178144.78450020426,9.959141025319695E-4,1.56109798E9,,,,0,,5,44.720741271972656,1.56109798E9
Raw,1187109,313531000000,,,-1348408593469036684,0.0,3.979495865688516,,,0,26,0.0,65583,309692921380494,6,44.53529357910156,-421.96429254079703,0.0011467690346762536,17,-161613.81208645072,5.733845173381269E-4,1.56109798E9,,,,0,,5,44.720741271972656,1.56109798E9
Raw,1187109,313531000000,,,-1348408593469036684,0.0,3.979495865688516,,,0,29,0.0,65583,309692924519862,6,48.013511657714844,-209.5557614745485,7.683606236241758E-4,17,-86578.52257981474,3.841803118120879E-4,1.56109798E9,,,,0,,5,44.720741271972656,1.56109798E9
Raw,1187109,313531000000,,,-1348408593469036684,0.0,3.979495865688516,,,0,30,0.0,65583,309692917293176,6,39.030704498291016,365.01151230637333,0.002050343668088317,17,133052.97574951293,0.0010251718340441585,1.56109798E9,,,,0,,5,44.720741271972656,1.56109798E9
Raw,1187109,313531000000,,,-1348408593469036684,0.0,3.979495865688516,,,0,35,0.0,65583,309692918957199,6,42.30559158325195,-637.6724020958645,0.001482384861446917,17,-244221.38807912904,7.411924307234585E-4,1.56109798E9,,,,0,,5,44.720741271972656,1.56109798E9
Raw,1187109,313531000000,,,-1348408593469036684,0.0,3.979495865688516,,,0,36,0.0,65583,309692917442156,7,38.227149963378906,398.944468759757,0.002249077195301652,17,150154.1388624787,0.001124538597650826,1.56109798E9,,,,0,,5,44.720741271972656,1.56109798E9
Raw,1187109,313531000000,,,-1348408593469036684,0.0,3.979495865688516,,,0,2,0.0,16392,309706921440849,1000000000,47.55643081665039,107.30696136292715,2.99792458E8,18,0.2915233151231269,3.4028234663852886E38,1.57542003E9,,,,0,,6,35.59573745727539,1.57542003E9
Raw,1187110,313531000000,,,-1348408593469036684,0.0,3.979495865688516,,,0,3,0.0,16392,309706908759125,1000000000,34.656890869140625,570.3234896034478,2.99792458E8,18,2.821547254514608,3.4028234663852886E38,1.57542003E9,,,,0,,6,35.59573745727539,1.57542003E9
Raw,1187110,313531000000,,,-1348408593469036684,0.0,3.979495865688516,,,0,7,0.0,16392,309706914116983,1000000000,39.38222885131836,-202.17522347574595,2.99792458E8,18,-0.7736852360483848,3.4028234663852886E38,1.57542003E9,,,,0,,6,35.59573745727539,1.57542003E9
Raw,1187110,313531000000,,,-1348408593469036684,0.0,3.979495865688516,,,0,8,0.0,16392,309706917401051,1000000000,44.432594299316406,318.76479749108444,2.99792458E8,18,0.6812989347990968,3.4028234663852886E38,1.57542003E9,,,,0,,6,35.59573745727539,1.57542003E9
Raw,1187110,313531000000,,,-1348408593469036684,0.0,3.979495865688516,,,0,10,0.0,16392,309706905552163,1000000000,23.95656967163086,215.35654537102982,2.99792458E8,18,0.3934535142837674,3.4028234663852886E38,1.57542003E9,,,,0,,6,35.59573745727539,1.57542003E9
Raw,1187110,313531000000,,,-1348408593469036684,0.0,3.979495865688516,,,0,25,0.0,16392,309706910848766,1000000000,36.70713806152344,364.4352210667373,2.99792458E8,18,1.8503489500174803,3.4028234663852886E38,1.57542003E9,,,,0,,6,35.59573745727539,1.57542003E9
Raw,1187110,313531000000,,,-1348408593469036684,0.0,3.979495865688516,,,0,30,0.0,16392,309706916617527,1000000000,43.786258697509766,-280.52044699613236,2.99792458E8,18,-2.248779217797493,3.4028234663852886E38,1.57542003E9,,,,0,,6,35.59573745727539,1.57542003E9
Raw,1187110,313531000000,,,-1348408593469036684,0.0,3.979495865688516,,,0,36,0.0,16392,309706911789835,1000000000,36.72810745239258,-426.4430360941428,2.99792458E8,18,-2.5880669344709095,3.4028234663852886E38,1.57542003E9,,,,0,,6,35.59573745727539,1.57542003E9
Raw,1188078,314531000000,,,-1348408593469036765,0.0,4.024669688371595,,,0,4,0.0,47,309707929710745,9,46.24481964111328,152.69745830861942,9.333260240964592E-4,17,50225.05324698047,0.09561349941123067,1.57542003E9,,,,0,,1,39.72154235839844,1.57542003E9
Raw,1188078,314531000000,,,-1348408593469036765,0.0,4.024669688371595,,,0,7,0.0,47,309707916026904,29,29.063411712646484,-616.2882737194304,0.006034606136381626,17,-236202.4239544068,0.09816413946737325,1.57542003E9,,,,0,,1,39.72154235839844,1.57542003E9
Raw,1188078,314531000000,,,-1348408593469036765,0.0,4.024669688371595,,,0,8,0.0,47,309707925166328,10,41.45917510986328,-679.5176708979416,0.0015361622208729386,17,-265533.00654955226,0.0959149175096189,1.57542003E9,,,,0,,1,39.72154235839844,1.57542003E9
Raw,1188079,314531000000,,,-1348408593469036765,0.0,4.024669688371595,,,0,9,0.0,47,309707925842269,11,43.2213134765625,-271.102716316469,0.0013219312531873584,17,-112399.08983332312,0.09580780202577611,1.57542003E9,,,,0,,1,39.72154235839844,1.57542003E9
Raw,1188079,314531000000,,,-1348408593469036765,0.0,4.024669688371595,,,0,16,0.0,47,309707931991134,7,48.382755279541016,177.67017264807512,7.296872790902853E-4,17,63538.44629046293,3.6484363954514265E-4,1.57542003E9,,,,0,,1,39.72154235839844,1.57542003E9
Raw,1188079,314531000000,,,-1348408593469036765,0.0,4.024669688371595,,,0,18,0.0,47,309707919015666,16,36.66162872314453,-101.1479673010399,0.0026687891222536564,17,-46298.78752705792,0.09648123096030926,1.57542003E9,,,,0,,1,39.72154235839844,1.57542003E9
Raw,1188079,314531000000,,,-1348408593469036765,0.0,4.024669688371595,,,0,26,0.0,47,309707928312380,9,45.66108322143555,387.4866058261832,9.982064366340637E-4,17,146768.24254280917,0.09564593961749947,1.57542003E9,,,,0,,1,39.72154235839844,1.57542003E9
Raw,1188080,314531000000,,,-1348408593469036765,0.0,4.024669688371595,,,0,27,0.0,47,309707932165428,7,49.35832977294922,-349.98606509217643,6.521656760014594E-4,17,-143035.11315130064,3.260828380007297E-4,1.57542003E9,,,,0,,1,39.72154235839844,1.57542003E9
Raw,1188080,314531000000,,,-1348408593469036765,0.0,4.024669688371595,,,0,31,0.0,47,309707920072919,13,38.77519989013672,542.2417648755945,0.002092356327921152,17,206181.02831082267,0.09619301456314301,1.57542003E9,,,,0,,1,39.72154235839844,1.57542003E9
Raw,1188080,314531000000,,,-1348408593469036765,0.0,4.024669688371595,,,0,8,0.0,81929,309707925166323,9,36.909217834472656,-679.5402514656889,0.0034734229557216167,17,-344263.97895558266,0.0017367114778608084,1.17645005E9,,,,0,,1,10.724854469299316,1.17645005E9
Raw,1188080,314531000000,,,-1348408593469036765,0.0,4.024669688371595,,,0,9,0.0,81929,309707925842257,8,38.954620361328125,-271.1248563982663,0.002744653727859259,17,-147138.03075171483,0.0013723268639296293,1.17645005E9,,,,0,,1,10.724854469299316,1.17645005E9
Raw,1188081,314531000000,,,-1348408593469036765,0.0,4.024669688371595,,,0,26,0.0,81929,309707928312371,8,41.006351470947266,387.4558139196015,0.0021672104485332966,17,189444.69875801695,0.0010836052242666483,1.17645005E9,,,,0,,1,10.724854469299316,1.17645005E9
Raw,1188081,314531000000,,,-1348408593469036765,0.0,4.024669688371595,,,0,27,0.0,81929,309707932165424,8,43.93738555908203,-350.0118833190354,0.0016301514115184546,17,-185999.0951905861,8.150757057592273E-4,1.17645005E9,,,,0,,1,10.724854469299316,1.17645005E9
Raw,1188081,314531000000,,,-1348408593469036765,0.0,4.024669688371595,,,0,2,0.0,227,61289925878380,33,47.625335693359375,689.0581082632707,7.840646430850029E-4,17,258620.62734938174,3.9203232154250145E-4,1.59975002E9,,,,0,,3,39.260719299316406,1.59975002E9
Raw,1188081,314531000000,,,-1348408593469036765,0.0,4.024669688371595,,,0,13,0.0,227,61289931301516,33,41.9022216796875,-335.88731396773073,0.0015142662450671196,17,-130496.11323616182,7.571331225335598E-4,1.60087501E9,,,,0,,3,39.260719299316406,1.60087501E9
Raw,1188081,314531000000,,,-1348408593469036765,0.0,4.024669688371595,,,0,100,0.0,227,61289921046514,33,41.50812911987305,490.68760985927656,0.001583440462127328,17,185932.43624776206,7.91720231063664E-4,1.602E9,,,,0,,3,39.260719299316406,1.602E9
Raw,1188081,314531000000,,,-1348408593469036765,0.0,4.024669688371595,,,0,23,0.0,227,61289924761496,33,43.76715087890625,-831.5376463819994,0.0012195326853543522,17,-319316.9317639342,6.09766342677176E-4,1.60368755E9,,,,0,,3,39.260719299316406,1.60368755E9
Raw,1188081,314531000000,,,-1348408593469036765,0.0,4.024669688371595,,,0,3,0.0,227,61289929052174,33,48.80954360961914,121.87539709045814,6.819764384999871E-4,17,35582.59590553733,3.4098821924999356E-4,1.60481254E9,,,,0,,3,39.260719299316406,1.60481254E9
Raw,1188082,314531000000,,,-1348408593469036765,0.0,4.024669688371595,,,0,106,0.0,227,61289922532035,33,41.80178451538086,-496.7812198399042,0.0015275836922228336,17,-197441.19620898724,7.637918461114168E-4,1.60537498E9,,,,0,,3,39.260719299316406,1.60537498E9
Raw,1188082,314531000000,,,-1348408593469036765,0.0,4.024669688371595,,,0,194,0.0,47,309707868808666,8,47.44496536254883,-20.629613521630745,8.128797053359449E-4,17,-6791.89463507945,0.09555327625185041,1.57542003E9,,,,0,,4,39.72154235839844,1.57542003E9
Raw,1188082,314531000000,,,-1348408593469036765,0.0,4.024669688371595,,,0,195,0.0,47,309707873200362,12,42.13957977294922,-49.05311346747476,0.0014972544740885496,17,-19401.137582185667,0.09589546363622671,1.57542003E9,,,,0,,4,39.72154235839844,1.57542003E9
Raw,1188082,314531000000,,,-1348408593469036765,0.0,4.024669688371595,,,0,194,0.0,81929,309707868808657,7,42.19164276123047,-20.664952663242733,0.0019930358976125717,17,-7888.794973271835,9.965179488062859E-4,1.17645005E9,,,,0,,4,10.724854469299316,1.17645005E9
Raw,1188082,314531000000,,,-1348408593469036765,0.0,4.024669688371595,,,0,195,0.0,81929,309707873200356,9,36.716835021972656,-49.062068770428596,0.0035512137692421675,17,-22969.90570581315,0.0017756068846210837,1.17645005E9,,,,0,,4,10.724854469299316,1.17645005E9
Raw,1188082,314531000000,,,-1348408593469036765,0.0,4.024669688371595,,,0,1,0.0,809,309693873152165,12,40.221866607666016,-25.621354289145525,0.0017875924240797758,17,-9628.522082825908,8.937962120398879E-4,1.56109798E9,,,,0,,5,49.166622161865234,1.56109798E9
Raw,1188082,314531000000,,,-1348408593469036765,0.0,4.024669688371595,,,0,2,0.0,809,309693872497479,15,37.24687957763672,-26.60292382839179,0.002373786410316825,17,-10023.086171018716,0.0011868932051584125,1.56109798E9,,,,0,,5,49.166622161865234,1.56109798E9
Raw,1188083,314531000000,,,-1348408593469036765,0.0,4.024669688371595,,,0,4,0.0,809,309693869534958,16,36.15000534057617,-29.047599637966414,0.002693304093554616,17,-10959.652132542837,0.09736639520191555,1.56109798E9,,,,0,,5,49.166622161865234,1.56109798E9
Raw,1188083,314531000000,,,-1348408593469036765,0.0,4.024669688371595,,,0,5,0.0,809,309693866688264,24,31.64784049987793,-17.190444451292358,0.525966859520608,20,-6431.714626043175,3.4028234663852886E38,1.56109798E9,,,,0,,5,49.166622161865234,1.56109798E9
Raw,1188083,314531000000,,,-1348408593469036765,0.0,4.024669688371595,,,0,7,0.0,65583,309693878613542,6,46.01395034790039,-88.5002959360969,0.15324432685927702,20,-34610.133246230136,3.4028234663852886E38,1.56109798E9,,,,0,,5,49.166622161865234,1.56109798E9
Raw,1188083,314531000000,,,-1348408593469036765,0.0,4.024669688371595,,,0,10,0.0,65583,309693875850412,6,42.93577575683594,-108.81507598160499,0.1527473021295357,20,-42307.63159156958,3.4028234663852886E38,1.56109798E9,,,,0,,5,49.166622161865234,1.56109798E9
Raw,1188083,314531000000,,,-1348408593469036765,0.0,4.024669688371595,,,0,14,0.0,65583,309693914405846,10,33.052547454833984,-129.24108412397527,0.46490654104484364,20,-55443.07753440141,3.4028234663852886E38,1.56109798E9,,,,0,,5,49.166622161865234,1.56109798E9
Raw,1188083,314531000000,,,-1348408593469036765,0.0,4.024669688371595,,,0,21,0.0,65583,309693915743437,6,39.23847579956055,475.7421506508663,0.1869728284173493,20,178620.23832743152,3.4028234663852886E38,1.56109798E9,,,,0,,5,49.166622161865234,1.56109798E9
Raw,1188083,314531000000,,,-1348408593469036765,0.0,4.024669688371595,,,0,26,0.0,65583,309693921381905,6,44.49626922607422,-421.8880180272388,0.15014477040916474,20,-162035.65133597943,3.4028234663852886E38,1.56109798E9,,,,0,,5,49.166622161865234,1.56109798E9
Raw,1188084,314531000000,,,-1348408593469036765,0.0,4.024669688371595,,,0,29,0.0,65583,309693924520563,6,47.97898483276367,-209.2735255720669,0.15070934430444616,20,-86787.9507633659,3.4028234663852886E38,1.56109798E9,,,,0,,5,49.166622161865234,1.56109798E9
Raw,1188084,314531000000,,,-1348408593469036765,0.0,4.024669688371595,,,0,30,0.0,65583,309693917291960,6,38.85978698730469,364.86483043120734,0.20428070863230186,20,133418.0745612309,3.4028234663852886E38,1.56109798E9,,,,0,,5,49.166622161865234,1.56109798E9
Raw,1188084,314531000000,,,-1348408593469036765,0.0,4.024669688371595,,,0,35,0.0,65583,309693918959331,6,42.37835693359375,-637.6473839519117,0.15330651735733647,20,-244859.08887808135,3.4028234663852886E38,1.56109798E9,,,,0,,5,49.166622161865234,1.56109798E9
Raw,1188084,314531000000,,,-1348408593469036765,0.0,4.024669688371595,,,0,36,0.0,65583,309693917440833,7,38.21856689453125,398.75383493079426,0.23314239183206686,20,150553.21157926443,3.4028234663852886E38,1.56109798E9,,,,0,,5,49.166622161865234,1.56109798E9
Raw,1188084,314531000000,,,-1348408593469036765,0.0,4.024669688371595,,,0,2,0.0,16392,309707921440494,1000000000,47.20838928222656,107.30696136292715,2.99792458E8,18,0.29404078050143545,3.4028234663852886E38,1.57542003E9,,,,0,,6,39.72154235839844,1.57542003E9
Raw,1188084,314531000000,,,-1348408593469036765,0.0,4.024669688371595,,,0,3,0.0,16392,309707908757223,1000000000,34.99559783935547,570.3234896034478,2.99792458E8,18,2.8349272776650962,3.4028234663852886E38,1.57542003E9,,,,0,,6,39.72154235839844,1.57542003E9
Raw,1188085,314531000000,,,-1348408593469036765,0.0,4.024669688371595,,,0,7,0.0,16392,309707914117659,1000000000,39.240013122558594,-202.17522347574595,2.99792458E8,18,-0.7784283495981728,3.4028234663852886E38,1.57542003E9,,,,0,,6,39.72154235839844,1.57542003E9
Raw,1188085,314531000000,,,-1348408593469036765,0.0,4.024669688371595,,,0,8,0.0,16392,309707917399989,1000000000,44.31163024902344,318.9504446317642,2.99792458E8,18,0.6889567679017217,3.4028234663852886E38,1.57542003E9,,,,0,,6,39.72154235839844,1.57542003E9
Raw,1188085,314531000000,,,-1348408593469036765,0.0,4.024669688371595,,,0,10,0.0,16392,309707905551449,1000000000,22.542091369628906,215.35654537102982,2.99792458E8,18,0.39850586705156044,3.4028234663852886E38,1.57542003E9,,,,0,,6,39.72154235839844,1.57542003E9
Raw,1188085,314531000000,,,-1348408593469036765,0.0,4.024669688371595,,,0,25,0.0,16392,309707910847551,1000000000,36.8116569519043,364.4352210667373,2.99792458E8,18,1.8588987496788545,3.4028234663852886E38,1.57542003E9,,,,0,,6,39.72154235839844,1.57542003E9
Raw,1188085,314531000000,,,-1348408593469036765,0.0,4.024669688371595,,,0,30,0.0,16392,309707916618463,1000000000,43.46954345703125,-280.52044699613236,2.99792458E8,18,-2.2553603426680686,3.4028234663852886E38,1.57542003E9,,,,0,,6,39.72154235839844,1.57542003E9
Raw,1188085,314531000000,,,-1348408593469036765,0.0,4.024669688371595,,,0,36,0.0,16392,309707911791260,1000000000,36.185001373291016,-426.4430360941428,2.99792458E8,18,-2.5980714628991217,3.4028234663852886E38,1.57542003E9,,,,0,,6,39.72154235839844,1.57542003E9
Raw,1189107,315531000000,,,-1348408593469036846,0.0,3.9779824501774748,,,0,4,0.0,47,309708929710235,9,46.20718765258789,152.85404052842398,0.1516428508064923,20,50377.70119156206,3.4028234663852886E38,1.57542003E9,,,,0,,1,35.84679412841797,1.57542003E9
Raw,1189108,315531000000,,,-1348408593469036846,0.0,3.9779824501774748,,,0,7,0.0,47,309708916028957,30,28.741933822631836,-616.4005168854178,0.659041877581219,20,-236818.90742265485,3.4028234663852886E38,1.57542003E9,,,,0,,1,35.84679412841797,1.57542003E9
Raw,1189108,315531000000,,,-1348408593469036846,0.0,3.9779824501774748,,,0,8,0.0,47,309708925168593,10,41.48194885253906,-679.6347567089833,0.001532139489427209,17,-266212.64130626124,7.660697447136045E-4,1.57542003E9,,,,0,,1,35.84679412841797,1.57542003E9
Raw,1189108,315531000000,,,-1348408593469036846,0.0,3.9779824501774748,,,0,9,0.0,47,309708925843168,11,43.291603088378906,-271.16537847125437,0.0013112766901031139,17,-112670.25521179437,6.556383450515568E-4,1.57542003E9,,,,0,,1,35.84679412841797,1.57542003E9
Raw,1189108,315531000000,,,-1348408593469036846,0.0,3.9779824501774748,,,0,16,0.0,47,309708931990539,7,48.35676574707031,177.5472701073886,7.31873675249517E-4,17,63715.99356057032,3.659368376247585E-4,1.57542003E9,,,,0,,1,35.84679412841797,1.57542003E9
Raw,1189108,315531000000,,,-1348408593469036846,0.0,3.9779824501774748,,,0,18,0.0,47,309708919016004,16,36.715667724609375,-100.983438709511,0.3010093662941291,20,-46400.00902436628,3.4028234663852886E38,1.57542003E9,,,,0,,1,35.84679412841797,1.57542003E9
Raw,1189108,315531000000,,,-1348408593469036846,0.0,3.9779824501774748,,,0,26,0.0,47,309708928311085,9,45.68502426147461,387.3250710660359,9.954586857929826E-4,17,147155.5676138752,4.977293428964913E-4,1.57542003E9,,,,0,,1,35.84679412841797,1.57542003E9
Raw,1189108,315531000000,,,-1348408593469036846,0.0,3.9779824501774748,,,0,27,0.0,47,309708932166596,7,49.317176818847656,-350.0481601739011,6.55262847431004E-4,17,-143385.16131147454,3.27631423715502E-4,1.57542003E9,,,,0,,1,35.84679412841797,1.57542003E9
Raw,1189109,315531000000,,,-1348408593469036846,0.0,3.9779824501774748,,,0,31,0.0,47,309708920071115,13,38.77293014526367,542.3226043751981,0.2086863820344338,20,206723.14099076885,3.4028234663852886E38,1.57542003E9,,,,0,,1,35.84679412841797,1.57542003E9
Raw,1189109,315531000000,,,-1348408593469036846,0.0,3.9779824501774748,,,0,8,0.0,81929,309708925168585,8,36.93803787231445,-679.5283586335136,0.003461917396634817,17,-344943.5073142162,0.0017309586983174086,1.17645005E9,,,,0,,1,8.884800910949707,1.17645005E9
Raw,1189109,315531000000,,,-1348408593469036846,0.0,3.9779824501774748,,,0,9,0.0,81929,309708925843161,8,38.9837532043457,-271.0690753526578,0.0027354636695235968,17,-147409.0998270675,0.0013677318347617984,1.17645005E9,,,,0,,1,8.884800910949707,1.17645005E9
Raw,1189109,315531000000,,,-1348408593469036846,0.0,3.9779824501774748,,,0,26,0.0,81929,309708928311078,8,41.09476089477539,387.4269398576289,0.0021452629007399082,17,189832.12569787458,0.0010726314503699541,1.17645005E9,,,,0,,1,8.884800910949707,1.17645005E9
Raw,1189109,315531000000,,,-1348408593469036846,0.0,3.9779824501774748,,,0,27,0.0,81929,309708932166590,8,43.851959228515625,-349.944233129354,0.001646263990551233,17,-186349.03942371544,8.231319952756166E-4,1.17645005E9,,,,0,,1,8.884800910949707,1.17645005E9
Raw,1189109,315531000000,,,-1348408593469036846,0.0,3.9779824501774748,,,0,2,0.0,227,61290925876105,33,47.570858001708984,689.090289875283,7.889978005550802E-4,17,259309.71763925703,3.944989002775401E-4,1.59975002E9,,,,0,,3,36.156707763671875,1.59975002E9
Raw,1189109,315531000000,,,-1348408593469036846,0.0,3.9779824501774748,,,0,13,0.0,227,61290931302650,33,41.91841506958008,-335.8784295548976,0.0015114457346498966,17,-130831.99166571672,7.557228673249483E-4,1.60087501E9,,,,0,,3,36.156707763671875,1.60087501E9
Raw,1189109,315531000000,,,-1348408593469036846,0.0,3.9779824501774748,,,0,100,0.0,227,61290921044870,33,41.63648986816406,490.6760697174177,0.001560212578624487,17,186423.11231747948,7.801062893122435E-4,1.602E9,,,,0,,3,36.156707763671875,1.602E9
Raw,1189110,315531000000,,,-1348408593469036846,0.0,3.9779824501774748,,,0,23,0.0,227,61290924764245,33,44.0136604309082,-831.5176232651575,0.001185408211313188,17,-320148.44938719936,5.92704105656594E-4,1.60368755E9,,,,0,,3,36.156707763671875,1.60368755E9
Raw,1189110,315531000000,,,-1348408593469036846,0.0,3.9779824501774748,,,0,3,0.0,227,61290929051766,33,49.013187408447266,122.00471523971645,6.661732913926244E-4,17,35704.60062077705,3.330866456963122E-4,1.60481254E9,,,,0,,3,36.156707763671875,1.60481254E9
Raw,1189110,315531000000,,,-1348408593469036846,0.0,3.9779824501774748,,,0,106,0.0,227,61290922533680,33,41.420345306396484,-496.6799890671391,0.001596162561327219,17,-197937.87619805438,7.980812806636095E-4,1.60537498E9,,,,0,,3,36.156707763671875,1.60537498E9
Raw,1189110,315531000000,,,-1348408593469036846,0.0,3.9779824501774748,,,0,194,0.0,47,309708868808740,8,47.51506423950195,-20.71429460086847,0.15148069286881738,20,-6812.722290942672,3.4028234663852886E38,1.57542003E9,,,,0,,4,35.84679412841797,1.57542003E9
Raw,1189110,315531000000,,,-1348408593469036846,0.0,3.9779824501774748,,,0,195,0.0,47,309708873200536,12,42.07115936279297,-49.12356860409565,0.1522706802765995,20,-19450.353980383534,3.4028234663852886E38,1.57542003E9,,,,0,,4,35.84679412841797,1.57542003E9
Raw,1189110,315531000000,,,-1348408593469036846,0.0,3.9779824501774748,,,0,194,0.0,81929,309708868808728,7,42.123634338378906,-20.717106823020004,0.002008702838793397,17,-7909.512080094855,0.0010043514193966985,1.17645005E9,,,,0,,4,8.884800910949707,1.17645005E9
Raw,1189111,315531000000,,,-1348408593469036846,0.0,3.9779824501774748,,,0,195,0.0,81929,309708873200517,8,36.770912170410156,-49.12636821093474,0.0035291737876832485,17,-23019.032074024086,0.0017645868938416243,1.17645005E9,,,,0,,4,8.884800910949707,1.17645005E9
Raw,1189111,315531000000,,,-1348408593469036846,0.0,3.9779824501774748,,,0,1,0.0,809,309694873152256,12,40.22254943847656,-25.82361701627633,0.0017874522600322964,17,-9654.345699842184,0.09691346928515439,1.56109798E9,,,,0,,5,53.165557861328125,1.56109798E9
Raw,1189111,315531000000,,,-1348408593469036846,0.0,3.9779824501774748,,,0,2,0.0,809,309694872497566,15,37.33715057373047,-26.70721495293037,0.0023492437321692705,17,-10049.793385971647,0.09719436502122288,1.56109798E9,,,,0,,5,53.165557861328125,1.56109798E9
Raw,1189111,315531000000,,,-1348408593469036846,0.0,3.9779824501774748,,,0,4,0.0,809,309694869535057,16,36.15520477294922,-29.25984995836734,0.0026916922070086002,17,-10988.911982501204,0.09736558925864254,1.56109798E9,,,,0,,5,53.165557861328125,1.56109798E9
Raw,1189111,315531000000,,,-1348408593469036846,0.0,3.9779824501774748,,,0,5,0.0,809,309694866688313,23,31.90397834777832,-17.26993432559445,0.5144486866819944,20,-6449.152897734162,3.4028234663852886E38,1.56109798E9,,,,0,,5,53.165557861328125,1.56109798E9
Raw,1189111,315531000000,,,-1348408593469036846,0.0,3.9779824501774748,,,0,7,0.0,65583,309694878613840,6,46.06714630126953,-88.77857990149641,9.613538859412074E-4,17,-34698.91182613163,0.09650042009810884,1.56109798E9,,,,0,,5,53.165557861328125,1.56109798E9
Raw,1189112,315531000000,,,-1348408593469036846,0.0,3.9779824501774748,,,0,10,0.0,65583,309694875850775,6,42.89754867553711,-109.06186704928666,0.15274736869683359,20,-42416.78463645063,3.4028234663852886E38,1.56109798E9,,,,0,,5,53.165557861328125,1.56109798E9
Raw,1189112,315531000000,,,-1348408593469036846,0.0,3.9779824501774748,,,0,14,0.0,65583,309694914406278,10,33.333072662353516,-128.51238416228932,0.4522916719733916,20,-55571.800890071165,3.4028234663852886E38,1.56109798E9,,,,0,,5,53.165557861328125,1.56109798E9
Raw,1189112,315531000000,,,-1348408593469036846,0.0,3.9779824501774748,,,0,21,0.0,65583,309694915741857,6,39.375732421875,475.3501342359409,0.18080030915263423,20,179095.5958221644,3.4028234663852886E38,1.56109798E9,,,,0,,5,53.165557861328125,1.56109798E9
Raw,1189112,315531000000,,,-1348408593469036846,0.0,3.9779824501774748,,,0,26,0.0,65583,309694921383313,6,44.563758850097656,-422.2625842244245,0.15014503667835633,20,-162457.7799462512,3.4028234663852886E38,1.56109798E9,,,,0,,5,53.165557861328125,1.56109798E9
Raw,1189112,315531000000,,,-1348408593469036846,0.0,3.9779824501774748,,,0,29,0.0,65583,309694924521258,6,47.93013381958008,-209.85209231276986,0.15070947743904195,20,-86997.50733211702,3.4028234663852886E38,1.56109798E9,,,,0,,5,53.165557861328125,1.56109798E9
Raw,1189112,315531000000,,,-1348408593469036846,0.0,3.9779824501774748,,,0,30,0.0,65583,309694917290745,6,38.93483352661133,365.3228645644174,0.20090569670349545,20,133783.0610661349,3.4028234663852886E38,1.56109798E9,,,,0,,5,53.165557861328125,1.56109798E9
Raw,1189112,315531000000,,,-1348408593469036846,0.0,3.9779824501774748,,,0,35,0.0,65583,309694918961455,6,42.37065124511719,-637.6352505973896,0.15330690011929937,20,-245496.88037801464,3.4028234663852886E38,1.56109798E9,,,,0,,5,53.165557861328125,1.56109798E9
Raw,1189112,315531000000,,,-1348408593469036846,0.0,3.9779824501774748,,,0,36,0.0,65583,309694917439500,7,38.31318283081055,399.16681205648115,0.22888729365777594,20,150952.0266113598,3.4028234663852886E38,1.56109798E9,,,,0,,5,53.165557861328125,1.56109798E9
Raw,1189113,315531000000,,,-1348408593469036846,0.0,3.9779824501774748,,,0,2,0.0,16392,309708921440135,1000000000,47.484344482421875,107.30696136292715,2.99792458E8,18,0.29655824585648893,3.4028234663852886E38,1.57542003E9,,,,0,,6,35.84679412841797,1.57542003E9
Raw,1189113,315531000000,,,-1348408593469036846,0.0,3.9779824501774748,,,0,3,0.0,16392,309708908755322,1000000000,34.70500946044922,570.3234896034478,2.99792458E8,18,2.8483073008141164,3.4028234663852886E38,1.57542003E9,,,,0,,6,35.84679412841797,1.57542003E9
Raw,1189113,315531000000,,,-1348408593469036846,0.0,3.9779824501774748,,,0,7,0.0,16392,309708914118331,1000000000,39.1204948425293,-202.17522347574595,2.99792458E8,18,-0.7831714632109529,3.4028234663852886E38,1.57542003E9,,,,0,,6,35.84679412841797,1.57542003E9
Raw,1189113,315531000000,,,-1348408593469036846,0.0,3.9779824501774748,,,0,8,0.0,16392,309708917398923,1000000000,44.36143493652344,318.9504446317642,2.99792458E8,18,0.6964394761631683,3.4028234663852886E38,1.57542003E9,,,,0,,6,35.84679412841797,1.57542003E9
Raw,1189113,315531000000,,,-1348408593469036846,0.0,3.9779824501774748,,,0,10,0.0,16392,309708905550727,1000000000,21.4403133392334,215.35654537102982,2.99792458E8,18,0.4035582198298484,3.4028234663852886E38,1.57542003E9,,,,0,,6,35.84679412841797,1.57542003E9
Raw,1189113,315531000000,,,-1348408593469036846,0.0,3.9779824501774748,,,0,25,0.0,16392,309708910846333,1000000000,36.676856994628906,364.4352210667373,2.99792458E8,18,1.8674485493543556,3.4028234663852886E38,1.57542003E9,,,,0,,6,35.84679412841797,1.57542003E9
Raw,1189113,315531000000,,,-1348408593469036846,0.0,3.9779824501774748,,,0,30,0.0,16392,309708916619397,1000000000,43.82224655151367,-280.3347998554526,2.99792458E8,18,-2.2612000508508245,3.4028234663852886E38,1.57542003E9,,,,0,,6,35.84679412841797,1.57542003E9
Raw,1189114,315531000000,,,-1348408593469036846,0.0,3.9779824501774748,,,0,36,0.0,16392,309708911792684,1000000000,36.20178985595703,-426.4430360941428,2.99792458E8,18,-2.608075991278853,3.4028234663852886E38,1.57542003E9,,,,0,,6,35.84679412841797,1.57542003E9
Raw,1190087,316531000000,,,-1348408593469036922,0.0,4.283171078169958,,,0,4,0.0,47,309709929709709,8,46.41087341308594,152.6837008573639,9.15652432013303E-4,17,50530.384892419424,0.09560466261518909,1.57542003E9,,,,0,,1,39.87852096557617,1.57542003E9
Raw,1190087,316531000000,,,-1348408593469036922,0.0,4.283171078169958,,,0,7,0.0,47,309709916031009,30,28.80109405517578,-616.604627199471,0.006219633389264345,17,-237435.51204985433,0.09825665309381461,1.57542003E9,,,,0,,1,39.87852096557617,1.57542003E9
Raw,1190087,316531000000,,,-1348408593469036922,0.0,4.283171078169958,,,0,8,0.0,47,309709925170844,10,41.70552062988281,-679.6460638386197,0.0014932055491954088,17,-266892.28737009986,7.466027745977044E-4,1.57542003E9,,,,0,,1,39.87852096557617,1.57542003E9
Raw,1190087,316531000000,,,-1348408593469036922,0.0,4.283171078169958,,,0,9,0.0,47,309709925844052,11,43.6228141784668,-271.12098184175557,0.0012622163631021976,17,-112941.37619363613,6.311081815510988E-4,1.57542003E9,,,,0,,1,39.87852096557617,1.57542003E9
Raw,1190087,316531000000,,,-1348408593469036922,0.0,4.283171078169958,,,0,16,0.0,47,309709931989925,7,48.56399917602539,177.56594354363912,7.146188290789723E-4,17,63893.55950411396,3.5730941453948617E-4,1.57542003E9,,,,0,,1,39.87852096557617,1.57542003E9
Raw,1190088,316531000000,,,-1348408593469036922,0.0,4.283171078169958,,,0,18,0.0,47,309709919016336,15,36.953712463378906,-101.20253268985107,0.0025805372279137373,17,-46501.21155705613,0.0964371050131393,1.57542003E9,,,,0,,1,39.87852096557617,1.57542003E9
Raw,1190088,316531000000,,,-1348408593469036922,0.0,4.283171078169958,,,0,26,0.0,47,309709928309775,9,45.84379196166992,387.30056820518803,9.77428164333105E-4,17,147542.8681820804,4.887140821665525E-4,1.57542003E9,,,,0,,1,39.87852096557617,1.57542003E9
Raw,1190088,316531000000,,,-1348408593469036922,0.0,4.283171078169958,,,0,27,0.0,47,309709932167739,7,49.38929748535156,-349.98228140798165,6.498448783531785E-4,17,-143735.14359288252,3.2492243917658925E-4,1.57542003E9,,,,0,,1,39.87852096557617,1.57542003E9
Raw,1190088,316531000000,,,-1348408593469036922,0.0,4.283171078169958,,,0,31,0.0,47,309709920069289,13,38.96743392944336,542.0419971892261,0.0020465580746531487,17,207265.18298795808,0.09617011543650901,1.57542003E9,,,,0,,1,39.87852096557617,1.57542003E9
Raw,1190088,316531000000,,,-1348408593469036922,0.0,4.283171078169958,,,0,8,0.0,81929,309709925170857,8,36.739593505859375,-679.446257906151,0.003541921731084585,17,-345622.9535721223,0.0017709608655422926,1.17645005E9,,,,0,,1,9.983428001403809,1.17645005E9
Raw,1190088,316531000000,,,-1348408593469036922,0.0,4.283171078169958,,,0,9,0.0,81929,309709925844068,10,38.91485595703125,-270.9001696239575,0.002757247304543853,17,-147679.99999669145,0.0013786236522719264,1.17645005E9,,,,0,,1,9.983428001403809,1.17645005E9
Raw,1190088,316531000000,,,-1348408593469036922,0.0,4.283171078169958,,,0,26,0.0,81929,309709928309788,9,41.094661712646484,387.50299121491844,0.002145287813618779,17,190219.6286890895,0.0010726439068093896,1.17645005E9,,,,0,,1,9.983428001403809,1.17645005E9
Raw,1190089,316531000000,,,-1348408593469036922,0.0,4.283171078169958,,,0,27,0.0,81929,309709932167758,9,43.87967300415039,-349.79288298342726,0.0016410195967182517,17,-186698.83230669887,8.205097983591259E-4,1.17645005E9,,,,0,,1,9.983428001403809,1.17645005E9
Raw,1190089,316531000000,,,-1348408593469036922,0.0,4.283171078169958,,,0,2,0.0,227,61291925873790,33,47.50450134277344,689.0585459756549,7.95048545114696E-4,17,259998.77618523268,3.97524272557348E-4,1.59975002E9,,,,0,,3,45.291751861572266,1.59975002E9
Raw,1190089,316531000000,,,-1348408593469036922,0.0,4.283171078169958,,,0,13,0.0,227,61291931303724,33,42.008338928222656,-335.92788146433304,0.0014958791434764862,17,-131167.91954718105,7.479395717382431E-4,1.60087501E9,,,,0,,3,45.291751861572266,1.60087501E9
Raw,1190089,316531000000,,,-1348408593469036922,0.0,4.283171078169958,,,0,100,0.0,227,61291921043216,33,41.838958740234375,490.61438072816236,0.0015242643421515822,17,186913.72669820764,7.621321710757911E-4,1.602E9,,,,0,,3,45.291751861572266,1.602E9
Raw,1190089,316531000000,,,-1348408593469036922,0.0,4.283171078169958,,,0,23,0.0,227,61291924767011,33,43.940513610839844,-831.5667068550247,0.001195433083921671,17,-320980.0160940544,5.977165419608355E-4,1.60368755E9,,,,0,,3,45.291751861572266,1.60368755E9
Raw,1190089,316531000000,,,-1348408593469036922,0.0,4.283171078169958,,,0,3,0.0,227,61291929051352,33,48.86347198486328,122.09109263209393,6.777552189305425E-4,17,35826.69171340914,3.3887760946527123E-4,1.60481254E9,,,,0,,3,45.291751861572266,1.60481254E9
Raw,1190090,316531000000,,,-1348408593469036922,0.0,4.283171078169958,,,0,106,0.0,227,61291922535380,33,41.06554412841797,-496.6320296743361,0.001662712194956839,17,-198434.50822772871,8.313560974784195E-4,1.60537498E9,,,,0,,3,45.291751861572266,1.60537498E9
Raw,1190090,316531000000,,,-1348408593469036922,0.0,4.283171078169958,,,0,194,0.0,47,309709868808788,8,47.72748565673828,-20.92368399519728,7.868650718592107E-4,17,-6833.645974937869,0.09554026893511204,1.57542003E9,,,,0,,4,39.87852096557617,1.57542003E9
Raw,1190090,316531000000,,,-1348408593469036922,0.0,4.283171078169958,,,0,195,0.0,47,309709873200678,12,42.375179290771484,-49.28410159791383,0.0014571879291906953,17,-19499.638081981448,0.09587543036377778,1.57542003E9,,,,0,,4,39.87852096557617,1.57542003E9
Raw,1190090,316531000000,,,-1348408593469036922,0.0,4.283171078169958,,,0,194,0.0,81929,309709868808798,8,42.013404846191406,-20.70990074862857,0.0020343561191111803,17,-7930.221980843484,0.0010171780595555902,1.17645005E9,,,,0,,4,9.983428001403809,1.17645005E9
Raw,1190090,316531000000,,,-1348408593469036922,0.0,4.283171078169958,,,0,195,0.0,81929,309709873200683,8,36.770503997802734,-49.07905942949583,0.003529339330270886,17,-23068.11113345358,0.0017646696651354432,1.17645005E9,,,,0,,4,9.983428001403809,1.17645005E9
Raw,1190090,316531000000,,,-1348408593469036922,0.0,4.283171078169958,,,0,1,0.0,809,309695873152330,11,40.333213806152344,-25.935883945978276,0.0017648231005296111,17,-9680.281583788163,0.09690215470540305,1.56109798E9,,,,0,,5,42.41771697998047,1.56109798E9
Raw,1190090,316531000000,,,-1348408593469036922,0.0,4.283171078169958,,,0,2,0.0,809,309695872497646,15,37.512794494628906,-26.9064159536465,0.0023022154346108437,17,-10076.699801925293,0.09717085087244366,1.56109798E9,,,,0,,5,42.41771697998047,1.56109798E9
Raw,1190091,316531000000,,,-1348408593469036922,0.0,4.283171078169958,,,0,4,0.0,809,309695869535151,16,36.396705627441406,-29.359437214061472,0.0026178837288171053,17,-11018.271419715265,0.09732868501954679,1.56109798E9,,,,0,,5,42.41771697998047,1.56109798E9
Raw,1190091,316531000000,,,-1348408593469036922,0.0,4.283171078169958,,,0,5,0.0,809,309695866688366,23,32.18285369873047,-17.194154113669512,0.5019079402967497,20,-6466.6486796318295,3.4028234663852886E38,1.56109798E9,,,,0,,5,42.41771697998047,1.56109798E9
Raw,1190091,316531000000,,,-1348408593469036922,0.0,4.283171078169958,,,0,7,0.0,65583,309695878614125,6,46.20832443237305,-88.58386611949084,0.15324442671022387,20,-34787.76732091652,3.4028234663852886E38,1.56109798E9,,,,0,,5,42.41771697998047,1.56109798E9
Raw,1190091,316531000000,,,-1348408593469036922,0.0,4.283171078169958,,,0,10,0.0,65583,309695875851133,6,43.0439453125,-109.50382278363207,0.15274743526413148,20,-42526.03835775516,3.4028234663852886E38,1.56109798E9,,,,0,,5,42.41771697998047,1.56109798E9
Raw,1190091,316531000000,,,-1348408593469036922,0.0,4.283171078169958,,,0,14,0.0,65583,309695914406688,10,33.034061431884766,-128.77103592484093,0.4657379665955661,20,-55700.53101074824,3.4028234663852886E38,1.56109798E9,,,,0,,5,42.41771697998047,1.56109798E9
Raw,1190091,316531000000,,,-1348408593469036922,0.0,4.283171078169958,,,0,21,0.0,65583,309695915740263,6,39.469661712646484,475.1666342900221,0.17657621469733842,20,179570.87664231338,3.4028234663852886E38,1.56109798E9,,,,0,,5,42.41771697998047,1.56109798E9
Raw,1190091,316531000000,,,-1348408593469036922,0.0,4.283171078169958,,,0,26,0.0,65583,309695921384713,6,44.66492462158203,-422.41244478575527,0.15014528630572344,20,-162879.9944301935,3.4028234663852886E38,1.56109798E9,,,,0,,5,42.41771697998047,1.56109798E9
Raw,1190092,316531000000,,,-1348408593469036922,0.0,4.283171078169958,,,0,29,0.0,65583,309695924521953,6,48.06324005126953,-209.22744609084805,0.15070959393181327,20,-87207.04887277314,3.4028234663852886E38,1.56109798E9,,,,0,,5,42.41771697998047,1.56109798E9
Raw,1190092,316531000000,,,-1348408593469036922,0.0,4.283171078169958,,,0,30,0.0,65583,309695917289513,6,38.9922981262207,365.218401835175,0.1983213045718012,20,134148.00084361815,3.4028234663852886E38,1.56109798E9,,,,0,,5,42.41771697998047,1.56109798E9
Raw,1190092,316531000000,,,-1348408593469036922,0.0,4.283171078169958,,,0,35,0.0,65583,309695918963570,6,42.48517608642578,-638.0922281744474,0.15330728288126227,20,-246134.76286058337,3.4028234663852886E38,1.56109798E9,,,,0,,5,42.41771697998047,1.56109798E9
Raw,1190092,316531000000,,,-1348408593469036922,0.0,4.283171078169958,,,0,36,0.0,65583,309695917438159,7,38.32719421386719,398.5356390441352,0.22825706776494448,20,151350.71787203112,3.4028234663852886E38,1.56109798E9,,,,0,,5,42.41771697998047,1.56109798E9
Raw,1190092,316531000000,,,-1348408593469036922,0.0,4.283171078169958,,,0,2,0.0,16392,309709921439776,1000000000,47.70647048950195,107.30696136292715,2.99792458E8,18,0.29236247022815814,3.4028234663852886E38,1.57542003E9,,,,0,,6,39.87852096557617,1.57542003E9
Raw,1190092,316531000000,,,-1348408593469036922,0.0,4.283171078169958,,,0,3,0.0,16392,309709908753417,1000000000,35.09157943725586,570.137842462768,2.99792458E8,18,2.825273105290792,3.4028234663852886E38,1.57542003E9,,,,0,,6,39.87852096557617,1.57542003E9
Raw,1190092,316531000000,,,-1348408593469036922,0.0,4.283171078169958,,,0,7,0.0,16392,309709914119006,1000000000,39.366268157958984,-201.9895763350662,2.99792458E8,18,-0.7749038476923376,3.4028234663852886E38,1.57542003E9,,,,0,,6,39.87852096557617,1.57542003E9
Raw,1190092,316531000000,,,-1348408593469036922,0.0,4.283171078169958,,,0,8,0.0,16392,309709917397858,1000000000,44.575279235839844,318.9504446317642,2.99792458E8,18,0.6839682957506303,3.4028234663852886E38,1.57542003E9,,,,0,,6,39.87852096557617,1.57542003E9
Raw,1190093,316531000000,,,-1348408593469036922,0.0,4.283171078169958,,,0,10,0.0,16392,309709905550005,1000000000,21.790637969970703,215.54219251170957,2.99792458E8,18,0.39531422295293817,3.4028234663852886E38,1.57542003E9,,,,0,,6,39.87852096557617,1.57542003E9
Raw,1190093,316531000000,,,-1348408593469036922,0.0,4.283171078169958,,,0,25,0.0,16392,309709910845119,1000000000,36.81793975830078,364.4352210667373,2.99792458E8,18,1.8531988832429722,3.4028234663852886E38,1.57542003E9,,,,0,,6,39.87852096557617,1.57542003E9
Raw,1190093,316531000000,,,-1348408593469036922,0.0,4.283171078169958,,,0,30,0.0,16392,309709916620333,1000000000,43.94948959350586,-280.3347998554526,2.99792458E8,18,-2.2502387691816432,3.4028234663852886E38,1.57542003E9,,,,0,,6,39.87852096557617,1.57542003E9
Raw,1190093,316531000000,,,-1348408593469036922,0.0,4.283171078169958,,,0,36,0.0,16392,309709911794104,1000000000,36.201412200927734,-426.4430360941428,2.99792458E8,18,-2.5914017772689393,3.4028234663852886E38,1.57542003E9,,,,0,,6,39.87852096557617,1.57542003E9
Raw,1191133,317531000000,,,-1348408593469037003,0.0,4.160084191425439,,,0,4,0.0,47,309710929709200,9,46.247291564941406,153.00661258968466,9.330605971626937E-4,17,50683.39150500911,0.09561336669776378,1.57542003E9,,,,0,,1,39.6419792175293,1.57542003E9
Raw,1191133,317531000000,,,-1348408593469037003,0.0,4.160084191425439,,,0,7,0.0,47,309710916033050,30,28.736482620239258,-616.3951271610567,0.006266072392463684,17,-238051.90717701538,0.09827987259541428,1.57542003E9,,,,0,,1,39.6419792175293,1.57542003E9
Raw,1191133,317531000000,,,-1348408593469037003,0.0,4.160084191425439,,,0,8,0.0,47,309710925173107,10,41.62906265258789,-679.4003312349669,0.0015064080944284797,17,-267571.6877013348,7.532040472142398E-4,1.57542003E9,,,,0,,1,39.6419792175293,1.57542003E9
Raw,1191133,317531000000,,,-1348408593469037003,0.0,4.160084191425439,,,0,9,0.0,47,309710925844961,11,43.52067947387695,-270.8038804498501,0.0012771458132192492,17,-113212.18007408598,6.385729066096246E-4,1.57542003E9,,,,0,,1,39.6419792175293,1.57542003E9
Raw,1191133,317531000000,,,-1348408593469037003,0.0,4.160084191425439,,,0,16,0.0,47,309710931989340,7,48.51588821411133,177.81321938938345,7.185882423073053E-4,17,64071.372723503344,3.5929412115365267E-4,1.57542003E9,,,,0,,1,39.6419792175293,1.57542003E9
Raw,1191133,317531000000,,,-1348408593469037003,0.0,4.160084191425439,,,0,18,0.0,47,309710919016667,15,36.87853240966797,-100.89336439307954,0.002602969529107213,17,-46602.10492144921,0.09644832116373604,1.57542003E9,,,,0,,1,39.6419792175293,1.57542003E9
Raw,1191134,317531000000,,,-1348408593469037003,0.0,4.160084191425439,,,0,26,0.0,47,309710928308486,9,45.752708435058594,387.5192839903466,9.87732084468007E-4,17,147930.38746607074,4.938660422340035E-4,1.57542003E9,,,,0,,1,39.6419792175293,1.57542003E9
Raw,1191134,317531000000,,,-1348408593469037003,0.0,4.160084191425439,,,0,27,0.0,47,309710932168914,7,49.37751770019531,-349.6798958584259,6.507266080006957E-4,17,-144084.82348874095,3.2536330400034785E-4,1.57542003E9,,,,0,,1,39.6419792175293,1.57542003E9
Raw,1191134,317531000000,,,-1348408593469037003,0.0,4.160084191425439,,,0,31,0.0,47,309710920067477,13,38.99787902832031,542.2779097450257,0.0020393971353769302,17,207807.4608977031,0.0961665349668709,1.57542003E9,,,,0,,1,39.6419792175293,1.57542003E9
